id,name,time,lat,lng,city,source,sourceUrl
0,红塔区北城街道大石板社区秧草塘村,1580572800,24.470383,102.518564,玉溪市,玉溪发布,https://mp.weixin.qq.com/s/THaIpahx_5VTWP2jcMMRMw
1,红塔区红塔大道50号华瑞小区,1580486400,24.346475,102.552853,玉溪市,玉溪发布,https://mp.weixin.qq.com/s/AjB4YCWmfSiJHzBJNhzHpg
2,元江哈尼族彝族傣族自治县玉景苑小区,1581091200,23.585408,102.009353,玉溪市,玉溪发布,https://mp.weixin.qq.com/s/5Ly88K9i_UAmQ4BbdfMUXA
3,西山区绿地大城天地商业区,1580745600,25.019502,102.708626,昆明市,掌上春城,https://mp.weixin.qq.com/s/ciOUEXIzQN1A0Nn42UI1KQ
4,西山区永昌街道绿地大城天地4B商业22-5栋,1581004800,25.019580,102.708322,昆明市,掌上春城,https://mp.weixin.qq.com/s/VV4sxV_uByYsWVzbjjLzdQ
5,官渡区小板桥街道海伦国际小区,1580400000,24.972677,102.751750,昆明市,掌上春城,https://mp.weixin.qq.com/s/sI06rmH67V3IpO-vT-kgIA
6,官渡区矣六街道星体花园北区13栋1单元,1581004800,24.946140,102.768898,昆明市,掌上春城,https://mp.weixin.qq.com/s/VV4sxV_uByYsWVzbjjLzdQ
7,盘龙区金殿武家村,1580400000,25.122211,102.758576,昆明市,掌上春城,https://mp.weixin.qq.com/s/sI06rmH67V3IpO-vT-kgIA
8,盘龙区联盟街道云锡花园2区西区1栋2单元,1581004800,25.077727,102.742992,昆明市,掌上春城,https://mp.weixin.qq.com/s/VV4sxV_uByYsWVzbjjLzdQ
9,东川区乌龙镇黄包谷地小组,1581004800,25.981869,103.085750,昆明市,掌上春城,https://mp.weixin.qq.com/s/VV4sxV_uByYsWVzbjjLzdQ
10,五华区红云街道江东耀龙康城8栋3单元,1581004800,25.104570,102.736698,昆明市,掌上春城,https://mp.weixin.qq.com/s/VV4sxV_uByYsWVzbjjLzdQ
11,五华区丰宁街道春晖小区颐达园3栋,1581004800,25.056789,102.683081,昆明市,掌上春城,https://mp.weixin.qq.com/s/VV4sxV_uByYsWVzbjjLzdQ
12,安宁市昆船花园小区13栋2单元,1581004800,24.925842,102.484409,昆明市,掌上春城,https://mp.weixin.qq.com/s/VV4sxV_uByYsWVzbjjLzdQ
13,安宁市金方街道恒大金碧天下博雅苑25栋1单元,1581004800,24.895772,102.568902,昆明市,掌上春城,https://mp.weixin.qq.com/s/VV4sxV_uByYsWVzbjjLzdQ
14,寻甸县塘子街道办事处小瓦匠村,1581004800,25.482902,103.290173,昆明市,掌上春城,https://mp.weixin.qq.com/s/VV4sxV_uByYsWVzbjjLzdQ
15,腾冲市镇安镇,1580400000,25.026545,98.497466,保山市,昆明发布,https://mp.weixin.qq.com/s/sI06rmH67V3IpO-vT-kgIA
16,瑞丽市五缘玉城小区,1580400000,24.029923,97.852803,德宏傣族景颇族自治州,昆明发布,https://mp.weixin.qq.com/s/sI06rmH67V3IpO-vT-kgIA
17,景洪市 景洪农场三分场,1580400000,21.991377,100.759977,西双版纳傣族自治州,昆明发布,https://mp.weixin.qq.com/s/sI06rmH67V3IpO-vT-kgIA
18,景洪市曼哈乡曼伞囡村,1580400000,21.765785,101.053935,西双版纳傣族自治州,昆明发布,https://mp.weixin.qq.com/s/sI06rmH67V3IpO-vT-kgIA
19,丰满区中海紫御江城,1580659200,43.838210,126.573684,吉林市,吉林省卫生健康委员会,http://wsjkw.jl.gov.cn/xwzx/xwfb/202002/t20200203_6672971.html
20,昌邑区吉炭小区,1580745600,43.881086,126.588273,吉林市,吉林省卫生健康委员会,http://wsjkw.jl.gov.cn/xwzx/xwfb/202002/t20200204_6674927.html
21,净月区万科城,1580572800,43.805290,125.393239,长春市,吉林省卫生健康委员会,http://wsjkw.jl.gov.cn/xwzx/xwfb/202002/t20200202_6672614.html
22,净月区博学路东城国际花园小区,1580486400,43.826003,125.421294,长春市,吉林省卫生健康委员会,http://wsjkw.jl.gov.cn/xwzx/xwfb/202002/t20200201_6666989.html
23,净月区净月街道财苑家园,1580745600,43.833540,125.453122,长春市,吉林省卫生健康委员会,http://wsjkw.jl.gov.cn/xwzx/xwfb/202002/t20200204_6674927.html
24,朝阳区崇智路694号,1580486400,43.898535,125.320549,长春市,吉林省卫生健康委员会,http://wsjkw.jl.gov.cn/xwzx/xwfb/202002/t20200201_6666989.html
25,绿园区西城国际公馆,1580659200,43.904510,125.275324,长春市,吉林省卫生健康委员会,http://wsjkw.jl.gov.cn/xwzx/xwfb/202002/t20200203_6672971.html
26,绿园区长客花园,1581004800,43.915473,125.296178,长春市,吉林省卫生健康委员会,http://wsjkw.jl.gov.cn/xwzx/xwfb/202002/t20200207_6828195.html
27,高新区中海兰庭小区,1580486400,43.789368,125.265626,长春市,吉林省卫生健康委员会,http://wsjkw.jl.gov.cn/xwzx/xwfb/202002/t20200201_6666989.html
28,高新区北湾新城,1580832000,43.975386,125.397757,长春市,吉林省卫生健康委员会,http://wsjkw.jl.gov.cn/xwzx/xwfb/202002/t20200205_6785982.html
29,高新区恒大绿洲,1580832000,43.780613,125.265493,长春市,吉林省卫生健康委员会,http://wsjkw.jl.gov.cn/xwzx/xwfb/202002/t20200205_6785982.html
30,高新区飞跃经典小区,1580832000,43.838619,125.247788,长春市,吉林省卫生健康委员会,http://wsjkw.jl.gov.cn/xwzx/xwfb/202002/t20200205_6785982.html
31,高新区吉大南校家属楼,1581177600,43.835129,125.285737,长春市,吉林省卫生健康委员会,http://wsjkw.jl.gov.cn/xwzx/xwfb/202002/t20200209_6829127.html
32,九台区龙凤二期,1580832000,44.230683,125.693165,长春市,吉林省卫生健康委员会,http://wsjkw.jl.gov.cn/xwzx/xwfb/202002/t20200205_6785982.html
33,九台区工商一条街铁路家属楼,1580918400,44.155910,125.844847,长春市,吉林省卫生健康委员会,http://wsjkw.jl.gov.cn/xwzx/xwfb/202002/t20200206_6827634.html
34,二道区力旺康城小区,1580832000,43.951683,125.377219,长春市,吉林省卫生健康委员会,http://wsjkw.jl.gov.cn/xwzx/xwfb/202002/t20200205_6785982.html
35,二道区天富北苑,1581004800,43.913445,125.381037,长春市,吉林省卫生健康委员会,http://wsjkw.jl.gov.cn/xwzx/xwfb/202002/t20200207_6828195.html
36,宽城区北十条荣旺天下,1580832000,43.922875,125.356990,长春市,吉林省卫生健康委员会,http://wsjkw.jl.gov.cn/xwzx/xwfb/202002/t20200205_6785982.html
37,宽城区金都小镇,1581177600,43.971679,125.293086,长春市,吉林省卫生健康委员会,http://wsjkw.jl.gov.cn/xwzx/xwfb/202002/t20200209_6829127.html
38,经开区首地首城,1581177600,43.847298,125.417761,长春市,吉林省卫生健康委员会,http://wsjkw.jl.gov.cn/xwzx/xwfb/202002/t20200209_6829127.html
39,十屋镇双河村1组,1581091200,43.827232,124.256500,公主岭市,公主岭发布,https://mp.weixin.qq.com/s/KW128634wCk05iJnub47-w
40,怀德镇三合堡村8组,1580745600,43.821273,124.713401,公主岭市,公主岭发布,https://mp.weixin.qq.com/s/6BExABnob5FBvJHVIRwX4Q
41,秦家屯镇南平村5队,1580745600,43.791779,124.663522,公主岭市,公主岭发布,https://mp.weixin.qq.com/s/6BExABnob5FBvJHVIRwX4Q
42,宁河区芦台镇王北村,1580572800,39.364648,117.778595,天津市,天津市卫生健康委员会,https://m.weibo.cn/3288836375/4467528383874070
43,宁河区芦台镇运河家园,1580572800,39.357660,117.808960,天津市,天津市卫生健康委员会,https://m.weibo.cn/3288836375/4467464668684998
44,宝坻区宝平街道华苑东区,1580659200,39.714832,117.312473,天津市,天津市卫生健康委员会,https://weibo.com/ttarticle/p/show?id=2309404468005563138481#_0
45,宝坻区宝平街道宝平景苑东区,1580659200,39.713545,117.301915,天津市,天津市卫生健康委员会,https://weibo.com/ttarticle/p/show?id=2309404467887791276156#_0
46,宝坻区宝平街道宝平景苑西区,1580572800,39.714700,117.297967,天津市,天津市卫生健康委员会,https://weibo.com/ttarticle/p/show?id=2309404467532516950021#_0
47,宝坻区宝平街道河景馨园小区,1580659200,39.708276,117.295854,天津市,天津市卫生健康委员会,https://weibo.com/ttarticle/p/show?id=2309404467887791276156#_0
48,宝坻区朝霞街道开元新居小区,1580486400,39.747222,117.291429,天津市,天津市卫生健康委员会,https://weibo.com/ttarticle/p/show?id=2309404467247119729065#_0
49,宝坻区海滨街道宝鑫景苑小区,1580486400,39.737580,117.328542,天津市,天津市卫生健康委员会,https://weibo.com/ttarticle/p/show?id=2309404467247119729065#_0
50,宝坻区海滨街道御景华城小区,1580832000,39.745025,117.356708,天津市,天津市卫生健康委员会,https://mp.weixin.qq.com/s/mibMIlfOXFKtghtnQmOc2g
51,宝坻区牛道口镇焦山寺村,1580659200,39.784768,117.297394,天津市,天津市卫生健康委员会,https://weibo.com/ttarticle/p/show?id=2309404468005563138481#_0
52,宝坻区钰华街道凯瑞国际小区,1580572800,39.728796,117.342896,天津市,天津市卫生健康委员会,https://weibo.com/ttarticle/p/show?id=2309404467518042407118#_0
53,宝坻区大口屯镇古庄村,1580745600,39.598941,117.265354,天津市,天津市卫生健康委员会,https://weibo.com/ttarticle/p/show?id=2309404468228100325522#_0
54,宝坻区大钟庄镇大钟庄村,1580745600,39.693528,117.583813,天津市,天津市卫生健康委员会,https://weibo.com/ttarticle/p/show?id=2309404468228100325522#_0
55,宝坻区海滨街道蓝水湾小区,1580832000,39.745618,117.305899,天津市,天津市卫生健康委员会,https://mp.weixin.qq.com/s/mibMIlfOXFKtghtnQmOc2g
56,宝坻区口东镇前齐各庄村,1580918400,39.675504,117.412018,天津市,天津市卫生健康委员会,https://mp.weixin.qq.com/s/_j9LvCI4jiWk2_T0LQtQ1g
57,宝坻区宝平街道瑞景花园小区,1580918400,39.728244,117.318368,天津市,天津市卫生健康委员会,https://mp.weixin.qq.com/s/_j9LvCI4jiWk2_T0LQtQ1g
58,宝坻区朝霞街道状元城小区,1580918400,39.747222,117.291429,天津市,天津市卫生健康委员会,https://mp.weixin.qq.com/s/_j9LvCI4jiWk2_T0LQtQ1g
59,宝坻区林亭口镇窝贝厂村,1580918400,39.609188,117.540123,天津市,天津市卫生健康委员会,https://mp.weixin.qq.com/s/_j9LvCI4jiWk2_T0LQtQ1g
60,宝坻区钰华街道金玉四园小区,1580918400,39.704944,117.315816,天津市,天津市卫生健康委员会,https://mp.weixin.qq.com/s/_j9LvCI4jiWk2_T0LQtQ1g
61,宝坻区宝平街道宝境檀香小区,1581004800,39.698975,117.283094,天津市,天津市卫生健康委员会,https://mp.weixin.qq.com/s/O0WTwV052DXXr4Onj60cQg
62,宝坻区牛道口镇沟头村,1581004800,39.820389,117.213926,天津市,天津市卫生健康委员会,https://mp.weixin.qq.com/s/O0WTwV052DXXr4Onj60cQg
63,宝坻区宝平街道凯旋家园小区,1581091200,39.701082,117.304368,天津市,天津市卫生健康委员会,https://mp.weixin.qq.com/s/S6ryp96tRzqjI_O-wup-wA
64,宝坻区宝平街道蝶恋新园小区,1581091200,39.718610,117.290669,天津市,天津市卫生健康委员会,https://mp.weixin.qq.com/s/S6ryp96tRzqjI_O-wup-wA
65,宝坻区钰华街道顺驰小区,1581091200,39.721568,117.336755,天津市,天津市卫生健康委员会,https://mp.weixin.qq.com/s/S6ryp96tRzqjI_O-wup-wA
66,宝坻区史各庄镇陈甫村,1581177600,39.736122,117.251221,天津市,天津市卫生健康委员会,https://mp.weixin.qq.com/s/MUaoBy2L3Ri3efvUapw1Vw
67,宝坻区宝平街道逸城雅园小区,1581177600,39.710685,117.308225,天津市,天津市卫生健康委员会,https://mp.weixin.qq.com/s/MUaoBy2L3Ri3efvUapw1Vw
68,滨海新区中新生态城,1580313600,39.122985,117.743982,天津市,天津市卫生健康委员会,http://wsjk.tj.gov.cn/art/2020/1/30/art_14_70358.html
69,滨海新区万通上北新新家园,1580918400,39.067527,117.654282,天津市,天津市卫生健康委员会,https://mp.weixin.qq.com/s/gaIEB8WrgNYE-l_zbDh9-A
70,东丽区揽湖苑别墅,1580659200,39.184644,117.505469,天津市,天津市卫生健康委员会,https://mp.weixin.qq.com/s/gPdbnGBu85QzfKEB7Pcl5g
71,东丽区华明街道坤园,1580918400,39.184763,117.386087,天津市,天津市卫生健康委员会,https://mp.weixin.qq.com/s/nY204KQCTkSAYUHOQqMQuw
72,西青区杨柳青镇,1580572800,39.134750,117.020467,天津市,天津市卫生健康委员会,https://mp.weixin.qq.com/s/1zdxSZJdLHgijEDgtMQ78A
73,西青区中北镇溪秀苑小区,1581091200,39.130492,117.099693,天津市,天津市卫生健康委员会,https://mp.weixin.qq.com/s/MhulTDUZaAe2StMEnt0QRQ
74,津南区双港镇,1580832000,39.048549,117.325283,天津市,天津市卫生健康委员会,https://mp.weixin.qq.com/s/UxZgU-HZLgGBUbpuTmdDdQ
75,北辰区普东街强宜里小区,1580918400,39.196323,117.211462,天津市,天津市卫生健康委员会,https://mp.weixin.qq.com/s/CB1_j2Nr_q9n4VY5-oSk7w
76,琅琊区清流街道泰鑫现代城东区,1580659200,32.306205,118.323552,滁州市,滁州发布,https://mp.weixin.qq.com/s/TEOx2z_wkOsy1ng-b2QsGA
77,凤阳县官塘镇,1580659200,32.689845,117.226148,滁州市,滁州发布,https://mp.weixin.qq.com/s/TEOx2z_wkOsy1ng-b2QsGA
78,天长市天长街道,1580659200,32.685513,119.019145,滁州市,滁州发布,https://mp.weixin.qq.com/s/TEOx2z_wkOsy1ng-b2QsGA
79,天长市汊涧镇,1580659200,32.672169,118.782065,滁州市,滁州发布,https://mp.weixin.qq.com/s/TEOx2z_wkOsy1ng-b2QsGA
80,明光市古沛镇,1580659200,32.996147,118.010907,滁州市,滁州发布,https://mp.weixin.qq.com/s/TEOx2z_wkOsy1ng-b2QsGA
81,和县功桥镇,1580140800,31.577393,118.200840,马鞍山市,马鞍山发布,https://mp.weixin.qq.com/s/VAkeFvLhH3_TKjz9ZgCu2g
82,和县白桥镇,1580313600,31.535248,118.315011,马鞍山市,马鞍山发布,https://mp.weixin.qq.com/s/6OaMK-gnrB_w6BCvYSM6qA
83,和县西埠镇,1580486400,31.774793,118.297969,马鞍山市,马鞍山发布,https://mp.weixin.qq.com/s/PdqY40WnqKysWTHJAnTw_A
84,和县香泉镇,1580140800,31.876716,118.332250,马鞍山市,马鞍山发布,https://mp.weixin.qq.com/s/VAkeFvLhH3_TKjz9ZgCu2g
85,当涂县黄池镇,1580140800,31.313363,118.612591,马鞍山市,马鞍山发布,https://mp.weixin.qq.com/s/VAkeFvLhH3_TKjz9ZgCu2g
86,雨山区泰和天成,1580313600,31.661081,118.518811,马鞍山市,马鞍山发布,https://mp.weixin.qq.com/s/6OaMK-gnrB_w6BCvYSM6qA
87,雨山区红旗花园,1580313600,31.702533,118.501349,马鞍山市,马鞍山发布,https://mp.weixin.qq.com/s/6OaMK-gnrB_w6BCvYSM6qA
88,雨山区阳光城,1580572800,31.668078,118.599970,马鞍山市,马鞍山发布,https://mp.weixin.qq.com/s/gGx0Oh7RJaZN8WUyKpNEfg
89,花山区同济花园,1581091200,31.711946,118.522414,马鞍山市,马鞍山发布,https://mp.weixin.qq.com/s/Cktq2Fru3ohEwhCbcunIpw
90,利辛县城关镇五一路,1580745600,33.147514,116.213657,亳州市,亳州市人民政府,http://www.bozhou.gov.cn/News/show/371600.html
91,利辛县城关镇文物所家属院,1580745600,33.150274,116.205653,亳州市,亳州市人民政府,http://www.bozhou.gov.cn/News/show/371600.html
92,利辛县城关镇港口新村老供销社家属院,1580745600,33.145114,116.208210,亳州市,亳州市人民政府,http://www.bozhou.gov.cn/News/show/371600.html
93,利辛县城关镇顺河村姚庄,1580745600,33.138515,116.145155,亳州市,亳州市人民政府,http://www.bozhou.gov.cn/News/show/371600.html
94,利辛县城关镇黄桥社区,1580745600,33.155259,116.207417,亳州市,亳州市人民政府,http://www.bozhou.gov.cn/News/show/371600.html
95,利辛县潘楼镇张大庄村张大庄,1580745600,33.260138,116.327919,亳州市,亳州市人民政府,http://www.bozhou.gov.cn/News/show/371600.html
96,利辛县王市镇刘沈村刘寨,1580745600,33.144480,116.104386,亳州市,亳州市人民政府,http://www.bozhou.gov.cn/News/show/371600.html
97,利辛县纪王场乡纪竹园庄,1580745600,33.347604,116.137012,亳州市,亳州市人民政府,http://www.bozhou.gov.cn/News/show/371600.html
98,利辛县胡集镇李圩村腰西庄,1580745600,32.962101,116.244580,亳州市,亳州市人民政府,http://www.bozhou.gov.cn/News/show/371600.html
99,利辛县西潘楼镇张集村东刘,1580745600,33.207871,116.129565,亳州市,亳州市人民政府,http://www.bozhou.gov.cn/News/show/371600.html
100,利辛县阚疃镇人民南路,1580745600,33.137759,116.213919,亳州市,亳州市人民政府,http://www.bozhou.gov.cn/News/show/371600.html
101,利辛县城关镇金龙国际新城,1580918400,33.168706,116.218734,亳州市,亳州市人民政府,http://www.bozhou.gov.cn/News/show/371819.html
102,利辛县城关镇中央名城小区,1581004800,33.150274,116.205653,亳州市,亳州市人民政府,http://www.bozhou.gov.cn/News/show/372025.html
103,利辛县城关镇复兴社区利东东区,1581004800,33.128557,116.213443,亳州市,亳州市人民政府,http://www.bozhou.gov.cn/News/show/372025.html
104,利辛县城关镇春店社区胜利村,1581004800,33.164607,116.239148,亳州市,亳州市人民政府,http://www.bozhou.gov.cn/News/show/372025.html
105,利辛县城关镇前进路英伦华帝小区,1581091200,33.151353,116.198170,亳州市,亳州市人民政府,http://www.bozhou.gov.cn/News/show/372202.html
106,利辛县老二中对面黄寨社区,1581091200,33.146857,116.149725,亳州市,亳州市人民政府,http://www.bozhou.gov.cn/News/show/372202.html
107,利辛县西潘楼镇东潘楼村,1581091200,33.204049,116.147163,亳州市,亳州市人民政府,http://www.bozhou.gov.cn/News/show/372202.html
108,利辛县城关镇闫郢村董老寨,1581177600,33.181968,116.219098,亳州市,亳州市人民政府,http://www.bozhou.gov.cn/News/show/372278.html
109,涡阳县城关镇街道北环中路,1580745600,33.522273,116.223957,亳州市,亳州市人民政府,http://www.bozhou.gov.cn/News/show/371600.html
110,涡阳县城关镇街道医苑新村,1580745600,33.496059,116.213176,亳州市,亳州市人民政府,http://www.bozhou.gov.cn/News/show/371600.html
111,涡阳县新兴镇付庄行政村付庄,1580745600,33.661903,116.412659,亳州市,亳州市人民政府,http://www.bozhou.gov.cn/News/show/371600.html
112,涡阳县新兴镇左楼付庄,1580745600,33.708006,116.230719,亳州市,亳州市人民政府,http://www.bozhou.gov.cn/News/show/371600.html
113,涡阳县星园街道桂语城栖,1580745600,33.478321,116.197400,亳州市,亳州市人民政府,http://www.bozhou.gov.cn/News/show/371600.html
114,涡阳县花沟镇孙小桥行政村李楼,1580745600,33.505767,116.134366,亳州市,亳州市人民政府,http://www.bozhou.gov.cn/News/show/371600.html
115,涡阳县马店集镇李庄行政村李庄,1580745600,33.669188,116.363501,亳州市,亳州市人民政府,http://www.bozhou.gov.cn/News/show/371600.html
116,涡阳县城关街道紫光大道与育英路交口向南,1580918400,33.501459,116.209999,亳州市,亳州市人民政府,http://www.bozhou.gov.cn/News/show/371819.html
117,涡阳县城关镇乐行家园,1580918400,33.512146,116.220871,亳州市,亳州市人民政府,http://www.bozhou.gov.cn/News/show/371819.html
118,涡阳县新兴镇付庄行政村,1580918400,33.708006,116.230719,亳州市,亳州市人民政府,http://www.bozhou.gov.cn/News/show/371819.html
119,涡阳县花沟镇孙小桥行政村,1580918400,33.505767,116.134366,亳州市,亳州市人民政府,http://www.bozhou.gov.cn/News/show/371819.html
120,涡阳县新兴镇左楼村,1581004800,33.685024,116.244823,亳州市,亳州市人民政府,http://www.bozhou.gov.cn/News/show/372025.html
121,涡阳县新汽车站对面路北小区幸福港湾,1581004800,33.500767,116.192705,亳州市,亳州市人民政府,http://www.bozhou.gov.cn/News/show/372025.html
122,涡阳县城关街道巨人印象小区,1581091200,33.494877,116.206273,亳州市,亳州市人民政府,http://www.bozhou.gov.cn/News/show/372202.html
123,涡阳县新兴镇左楼行政村大围子自然村,1581177600,33.601665,116.240360,亳州市,亳州市人民政府,http://www.bozhou.gov.cn/News/show/372278.html
124,涡阳县花沟镇狄马村,1581177600,33.499336,116.104765,亳州市,亳州市人民政府,http://www.bozhou.gov.cn/News/show/372278.html
125,蒙城县三义镇义兴街,1580745600,33.105736,116.482228,亳州市,亳州市人民政府,http://www.bozhou.gov.cn/News/show/371600.html
126,蒙城县乐土镇双桥村褚尹庄,1580745600,33.085865,116.623141,亳州市,亳州市人民政府,http://www.bozhou.gov.cn/News/show/371600.html
127,蒙城县乐土镇柳林街,1580745600,33.113359,116.658378,亳州市,亳州市人民政府,http://www.bozhou.gov.cn/News/show/371600.html
128,蒙城县城关街道金天地商业街,1580745600,33.261956,116.563059,亳州市,亳州市人民政府,http://www.bozhou.gov.cn/News/show/371600.html
129,蒙城县庄周街道玖隆国际C区,1580745600,33.245955,116.567193,亳州市,亳州市人民政府,http://www.bozhou.gov.cn/News/show/371600.html
130,蒙城县许疃镇赵集村东孙庄,1580745600,33.407803,116.791663,亳州市,亳州市人民政府,http://www.bozhou.gov.cn/News/show/371600.html
131,蒙城县许疃镇闫集村后钱庄,1580745600,33.381217,116.669756,亳州市,亳州市人民政府,http://www.bozhou.gov.cn/News/show/371600.html
132,蒙城县庄周街道桂堰小区,1580918400,33.247943,116.600867,亳州市,亳州市人民政府,http://www.bozhou.gov.cn/News/show/371819.html
133,谯城区亿丰御景小区,1580745600,33.844977,115.792556,亳州市,亳州市人民政府,http://www.bozhou.gov.cn/News/show/371600.html
134,谯城区十八里镇候桥村赵老家,1580745600,33.786218,115.633889,亳州市,亳州市人民政府,http://www.bozhou.gov.cn/News/show/371600.html
135,谯城区御花园小区,1580745600,33.863963,115.775411,亳州市,亳州市人民政府,http://www.bozhou.gov.cn/News/show/371600.html
136,谯城区薛阁办事处白依路包园新村,1580745600,33.875349,115.795785,亳州市,亳州市人民政府,http://www.bozhou.gov.cn/News/show/371600.html
137,谯城区颜集镇曹寺行政村东张庄,1580745600,33.958130,116.002206,亳州市,亳州市人民政府,http://www.bozhou.gov.cn/News/show/371600.html
138,谯城区华佗镇程屯村,1580918400,33.936485,115.774285,亳州市,亳州市人民政府,http://www.bozhou.gov.cn/News/show/371819.html
139,谯城区华佗镇程屯村小王庄,1581091200,33.948659,115.728055,亳州市,亳州市人民政府,http://www.bozhou.gov.cn/News/show/372202.html
140,高新区建投世纪城,1580745600,33.811028,115.768197,亳州市,亳州市人民政府,http://www.bozhou.gov.cn/News/show/371600.html
141,高新区翡翠庄园,1580745600,33.825239,115.773983,亳州市,亳州市人民政府,http://www.bozhou.gov.cn/News/show/371600.html
142,高新区豪泽丽景小区,1580745600,33.833713,115.777920,亳州市,亳州市人民政府,http://www.bozhou.gov.cn/News/show/371600.html
143,包河区宝利丰广场,1580832000,31.841174,117.293366,合肥市,合肥市卫生健康委员会,http://wjw.hefei.gov.cn/ztzl/xxgzbdgrdfyyqfk/xxfb/17723463.html
144,包河区曙宏南苑,1580832000,31.830420,117.282334,合肥市,合肥市卫生健康委员会,http://wjw.hefei.gov.cn/ztzl/xxgzbdgrdfyyqfk/xxfb/17723463.html
145,包河区滨湖明珠西区,1580832000,31.738912,117.288754,合肥市,合肥市卫生健康委员会,http://wjw.hefei.gov.cn/ztzl/xxgzbdgrdfyyqfk/xxfb/17723463.html
146,包河区琼林苑小区,1580832000,31.753796,117.296506,合肥市,合肥市卫生健康委员会,http://wjw.hefei.gov.cn/ztzl/xxgzbdgrdfyyqfk/xxfb/17723463.html
147,包河区豪门金地小区,1580832000,31.712229,117.287140,合肥市,合肥市卫生健康委员会,http://wjw.hefei.gov.cn/ztzl/xxgzbdgrdfyyqfk/xxfb/17723463.html
148,包河区金湾嘉园,1580832000,31.855728,117.312691,合肥市,合肥市卫生健康委员会,http://wjw.hefei.gov.cn/ztzl/xxgzbdgrdfyyqfk/xxfb/17723463.html
149,包河区兴丰苑小区,1581091200,31.856152,117.299758,合肥市,合肥市卫生健康委员会,http://wjw.hefei.gov.cn/ztzl/xxgzbdgrdfyyqfk/xxfb/17724747.html
150,巢湖市凤凰山街道城市之光C区,1580832000,31.622418,117.884472,合肥市,合肥市卫生健康委员会,http://wjw.hefei.gov.cn/ztzl/xxgzbdgrdfyyqfk/xxfb/17723463.html
151,巢湖市槐林镇武山居委会,1580832000,31.427260,117.618682,合肥市,合肥市卫生健康委员会,http://wjw.hefei.gov.cn/ztzl/xxgzbdgrdfyyqfk/xxfb/17723463.html
152,庐江县冶父山镇冶父山社区,1580832000,31.275924,117.340357,合肥市,合肥市卫生健康委员会,http://wjw.hefei.gov.cn/ztzl/xxgzbdgrdfyyqfk/xxfb/17723463.html
153,庐江县同大镇施丰村,1580832000,31.482432,117.298634,合肥市,合肥市卫生健康委员会,http://wjw.hefei.gov.cn/ztzl/xxgzbdgrdfyyqfk/xxfb/17723463.html
154,庐江县庐城镇翠绿园,1580832000,31.263525,117.301155,合肥市,合肥市卫生健康委员会,http://wjw.hefei.gov.cn/ztzl/xxgzbdgrdfyyqfk/xxfb/17723463.html
155,庐江县柯坦镇城池村,1580832000,31.195574,117.192492,合肥市,合肥市卫生健康委员会,http://wjw.hefei.gov.cn/ztzl/xxgzbdgrdfyyqfk/xxfb/17723463.html
156,庐江县矾山镇新中村,1580832000,31.071346,117.438949,合肥市,合肥市卫生健康委员会,http://wjw.hefei.gov.cn/ztzl/xxgzbdgrdfyyqfk/xxfb/17723463.html
157,庐江县罗河镇吉桥村,1580832000,31.069466,117.244269,合肥市,合肥市卫生健康委员会,http://wjw.hefei.gov.cn/ztzl/xxgzbdgrdfyyqfk/xxfb/17723463.html
158,庐江县罗河镇鲍店村,1580832000,30.988277,117.399163,合肥市,合肥市卫生健康委员会,http://wjw.hefei.gov.cn/ztzl/xxgzbdgrdfyyqfk/xxfb/17723463.html
159,庐江县金牛镇铺岗村,1580832000,31.382560,117.176553,合肥市,合肥市卫生健康委员会,http://wjw.hefei.gov.cn/ztzl/xxgzbdgrdfyyqfk/xxfb/17723463.html
160,庐阳区古城新村,1580832000,31.882074,117.262181,合肥市,合肥市卫生健康委员会,http://wjw.hefei.gov.cn/ztzl/xxgzbdgrdfyyqfk/xxfb/17723463.html
161,庐阳区探矿厂宿舍,1580832000,31.911258,117.292576,合肥市,合肥市卫生健康委员会,http://wjw.hefei.gov.cn/ztzl/xxgzbdgrdfyyqfk/xxfb/17723463.html
162,庐阳区杏林花园南区,1580832000,31.900068,117.293856,合肥市,合肥市卫生健康委员会,http://wjw.hefei.gov.cn/ztzl/xxgzbdgrdfyyqfk/xxfb/17723463.html
163,庐阳区柏景湾青云轩,1580832000,31.882968,117.278069,合肥市,合肥市卫生健康委员会,http://wjw.hefei.gov.cn/ztzl/xxgzbdgrdfyyqfk/xxfb/17723463.html
164,庐阳区海亮红玺台小区,1580918400,31.898485,117.272613,合肥市,合肥市卫生健康委员会,http://wjw.hefei.gov.cn/ztzl/xxgzbdgrdfyyqfk/xxfb/17723955.html
165,庐阳区海棠别院,1580918400,31.899378,117.275458,合肥市,合肥市卫生健康委员会,http://wjw.hefei.gov.cn/ztzl/xxgzbdgrdfyyqfk/xxfb/17723955.html
166,庐阳区四泉花园南区,1581091200,31.891583,117.259926,合肥市,合肥市卫生健康委员会,http://wjw.hefei.gov.cn/ztzl/xxgzbdgrdfyyqfk/xxfb/17724747.html
167,庐阳区土产日杂公司宿舍,1581091200,31.904402,117.264659,合肥市,合肥市卫生健康委员会,http://wjw.hefei.gov.cn/ztzl/xxgzbdgrdfyyqfk/xxfb/17724747.html
168,新站区合郢花园,1580832000,31.910259,117.379489,合肥市,合肥市卫生健康委员会,http://wjw.hefei.gov.cn/ztzl/xxgzbdgrdfyyqfk/xxfb/17723463.html
169,新站区园上园公寓楼,1580832000,31.893357,117.364899,合肥市,合肥市卫生健康委员会,http://wjw.hefei.gov.cn/ztzl/xxgzbdgrdfyyqfk/xxfb/17723463.html
170,新站区家天下3期,1580832000,31.899637,117.331336,合肥市,合肥市卫生健康委员会,http://wjw.hefei.gov.cn/ztzl/xxgzbdgrdfyyqfk/xxfb/17723463.html
171,新站区新海尚宸家园,1580832000,31.905105,117.348673,合肥市,合肥市卫生健康委员会,http://wjw.hefei.gov.cn/ztzl/xxgzbdgrdfyyqfk/xxfb/17723463.html
172,新站区昊天园小区,1580832000,31.938910,117.429810,合肥市,合肥市卫生健康委员会,http://wjw.hefei.gov.cn/ztzl/xxgzbdgrdfyyqfk/xxfb/17723463.html
173,新站区京商商贸城,1580918400,31.934253,117.349967,合肥市,合肥市卫生健康委员会,http://wjw.hefei.gov.cn/ztzl/xxgzbdgrdfyyqfk/xxfb/17723955.html
174,新站区张洼新村,1580918400,31.911054,117.326208,合肥市,合肥市卫生健康委员会,http://wjw.hefei.gov.cn/ztzl/xxgzbdgrdfyyqfk/xxfb/17723955.html
175,新站区金辉悦府小区,1580918400,31.924459,117.331004,合肥市,合肥市卫生健康委员会,http://wjw.hefei.gov.cn/ztzl/xxgzbdgrdfyyqfk/xxfb/17723955.html
176,瑶海区临泉花苑小区,1580832000,31.892381,117.310614,合肥市,合肥市卫生健康委员会,http://wjw.hefei.gov.cn/ztzl/xxgzbdgrdfyyqfk/xxfb/17723463.html
177,瑶海区元一名城,1580832000,31.896285,117.299255,合肥市,合肥市卫生健康委员会,http://wjw.hefei.gov.cn/ztzl/xxgzbdgrdfyyqfk/xxfb/17723463.html
178,瑶海区凤翔家园,1580832000,31.879688,117.328236,合肥市,合肥市卫生健康委员会,http://wjw.hefei.gov.cn/ztzl/xxgzbdgrdfyyqfk/xxfb/17723463.html
179,瑶海区华都城市花园,1580832000,31.872362,117.383272,合肥市,合肥市卫生健康委员会,http://wjw.hefei.gov.cn/ztzl/xxgzbdgrdfyyqfk/xxfb/17723463.html
180,瑶海区怡馨苑,1580832000,31.887644,117.307748,合肥市,合肥市卫生健康委员会,http://wjw.hefei.gov.cn/ztzl/xxgzbdgrdfyyqfk/xxfb/17723463.html
181,瑶海区恒丰嘉园,1580832000,31.874785,117.330807,合肥市,合肥市卫生健康委员会,http://wjw.hefei.gov.cn/ztzl/xxgzbdgrdfyyqfk/xxfb/17723463.html
182,瑶海区恒大中央广场,1580832000,31.881524,117.305157,合肥市,合肥市卫生健康委员会,http://wjw.hefei.gov.cn/ztzl/xxgzbdgrdfyyqfk/xxfb/17723463.html
183,瑶海区斯瑞新景苑,1580832000,31.881050,117.374005,合肥市,合肥市卫生健康委员会,http://wjw.hefei.gov.cn/ztzl/xxgzbdgrdfyyqfk/xxfb/17723463.html
184,瑶海区新创益民家园,1580832000,31.874198,117.394283,合肥市,合肥市卫生健康委员会,http://wjw.hefei.gov.cn/ztzl/xxgzbdgrdfyyqfk/xxfb/17723463.html
185,瑶海区温莎国际广场,1580832000,31.880137,117.315996,合肥市,合肥市卫生健康委员会,http://wjw.hefei.gov.cn/ztzl/xxgzbdgrdfyyqfk/xxfb/17723463.html
186,瑶海区铜陵路工业锅炉厂宿舍,1580832000,31.875870,117.330092,合肥市,合肥市卫生健康委员会,http://wjw.hefei.gov.cn/ztzl/xxgzbdgrdfyyqfk/xxfb/17723463.html
187,瑶海区长江东路五里井17栋,1580832000,31.873052,117.335250,合肥市,合肥市卫生健康委员会,http://wjw.hefei.gov.cn/ztzl/xxgzbdgrdfyyqfk/xxfb/17723463.html
188,瑶海区芳邻家园,1580918400,31.879195,117.340126,合肥市,合肥市卫生健康委员会,http://wjw.hefei.gov.cn/ztzl/xxgzbdgrdfyyqfk/xxfb/17723955.html
189,瑶海区大兴镇合浦新村（恢复楼）,1581004800,31.871985,117.360682,合肥市,合肥市卫生健康委员会,http://wjw.hefei.gov.cn/ztzl/xxgzbdgrdfyyqfk/xxfb/17724493.html
190,肥东县八斗镇王城社区,1580832000,32.145055,117.684291,合肥市,合肥市卫生健康委员会,http://wjw.hefei.gov.cn/ztzl/xxgzbdgrdfyyqfk/xxfb/17723463.html
191,肥东县店埠镇光大居委会光大新村,1580832000,31.896707,117.459871,合肥市,合肥市卫生健康委员会,http://wjw.hefei.gov.cn/ztzl/xxgzbdgrdfyyqfk/xxfb/17723463.html
192,肥东县店埠镇凯旋公馆,1580832000,31.895768,117.455112,合肥市,合肥市卫生健康委员会,http://wjw.hefei.gov.cn/ztzl/xxgzbdgrdfyyqfk/xxfb/17723463.html
193,肥东县店埠镇和平社区汇景新城,1580832000,31.893050,117.468278,合肥市,合肥市卫生健康委员会,http://wjw.hefei.gov.cn/ztzl/xxgzbdgrdfyyqfk/xxfb/17723463.html
194,肥东县店埠镇定光社区传桥组,1580832000,31.883598,117.494182,合肥市,合肥市卫生健康委员会,http://wjw.hefei.gov.cn/ztzl/xxgzbdgrdfyyqfk/xxfb/17723463.html
195,肥东县店埠镇定光社区新农村小区,1580832000,31.883598,117.494182,合肥市,合肥市卫生健康委员会,http://wjw.hefei.gov.cn/ztzl/xxgzbdgrdfyyqfk/xxfb/17723463.html
196,肥东县店埠镇新城社区新城家园,1580832000,31.872520,117.458753,合肥市,合肥市卫生健康委员会,http://wjw.hefei.gov.cn/ztzl/xxgzbdgrdfyyqfk/xxfb/17723463.html
197,肥东县店埠镇镇南社区,1580832000,31.887680,117.476097,合肥市,合肥市卫生健康委员会,http://wjw.hefei.gov.cn/ztzl/xxgzbdgrdfyyqfk/xxfb/17723463.html
198,肥东县店埠镇青春社区育红小学宿舍楼,1580832000,31.890812,117.477687,合肥市,合肥市卫生健康委员会,http://wjw.hefei.gov.cn/ztzl/xxgzbdgrdfyyqfk/xxfb/17723463.html
199,肥东县牌坊回族满族乡民新村,1580832000,31.956139,117.513838,合肥市,合肥市卫生健康委员会,http://wjw.hefei.gov.cn/ztzl/xxgzbdgrdfyyqfk/xxfb/17723463.html
200,肥东县石塘镇供销社宿舍,1580832000,31.937971,117.639928,合肥市,合肥市卫生健康委员会,http://wjw.hefei.gov.cn/ztzl/xxgzbdgrdfyyqfk/xxfb/17723463.html
201,肥东县石塘镇新展社区,1580832000,31.937971,117.639928,合肥市,合肥市卫生健康委员会,http://wjw.hefei.gov.cn/ztzl/xxgzbdgrdfyyqfk/xxfb/17723463.html
202,肥东县石塘镇龙城社区,1580832000,31.905318,117.574410,合肥市,合肥市卫生健康委员会,http://wjw.hefei.gov.cn/ztzl/xxgzbdgrdfyyqfk/xxfb/17723463.html
203,肥东县陈大郢社区紫玉华府,1580832000,31.895852,117.427154,合肥市,合肥市卫生健康委员会,http://wjw.hefei.gov.cn/ztzl/xxgzbdgrdfyyqfk/xxfb/17723463.html
204,肥东县马湖乡沙河村,1580832000,32.053394,117.852714,合肥市,合肥市卫生健康委员会,http://wjw.hefei.gov.cn/ztzl/xxgzbdgrdfyyqfk/xxfb/17723463.html
205,肥东县马湖乡马湖社区,1580832000,32.075769,117.850893,合肥市,合肥市卫生健康委员会,http://wjw.hefei.gov.cn/ztzl/xxgzbdgrdfyyqfk/xxfb/17723463.html
206,肥东县店埠镇星光嘉苑,1581091200,31.895687,117.473250,合肥市,合肥市卫生健康委员会,http://wjw.hefei.gov.cn/ztzl/xxgzbdgrdfyyqfk/xxfb/17724747.html
207,肥西县上派镇华邦万派城,1580832000,31.733228,117.170677,合肥市,合肥市卫生健康委员会,http://wjw.hefei.gov.cn/ztzl/xxgzbdgrdfyyqfk/xxfb/17723463.html
208,肥西县上派镇韩圩村,1580832000,31.690635,117.202522,合肥市,合肥市卫生健康委员会,http://wjw.hefei.gov.cn/ztzl/xxgzbdgrdfyyqfk/xxfb/17723463.html
209,肥西县桃花镇东冠繁华逸城,1580832000,31.788310,117.179257,合肥市,合肥市卫生健康委员会,http://wjw.hefei.gov.cn/ztzl/xxgzbdgrdfyyqfk/xxfb/17723463.html
210,肥西县桃花镇信地华地城,1580832000,31.786386,117.171651,合肥市,合肥市卫生健康委员会,http://wjw.hefei.gov.cn/ztzl/xxgzbdgrdfyyqfk/xxfb/17723463.html
211,肥西县铭传乡墩塘村,1580918400,31.767896,116.793209,合肥市,合肥市卫生健康委员会,http://wjw.hefei.gov.cn/ztzl/xxgzbdgrdfyyqfk/xxfb/17723955.html
212,肥西县山南镇光明村,1581004800,31.678514,116.779015,合肥市,合肥市卫生健康委员会,http://wjw.hefei.gov.cn/ztzl/xxgzbdgrdfyyqfk/xxfb/17724493.html
213,蜀山区中央美域A区,1580832000,31.873684,117.242971,合肥市,合肥市卫生健康委员会,http://wjw.hefei.gov.cn/ztzl/xxgzbdgrdfyyqfk/xxfb/17723463.html
214,蜀山区中铁青秀城,1580832000,31.878036,117.251446,合肥市,合肥市卫生健康委员会,http://wjw.hefei.gov.cn/ztzl/xxgzbdgrdfyyqfk/xxfb/17723463.html
215,蜀山区内森庄园,1580832000,31.821825,117.220521,合肥市,合肥市卫生健康委员会,http://wjw.hefei.gov.cn/ztzl/xxgzbdgrdfyyqfk/xxfb/17723463.html
216,蜀山区和谐家园（长丰南路）,1580832000,31.825888,117.252665,合肥市,合肥市卫生健康委员会,http://wjw.hefei.gov.cn/ztzl/xxgzbdgrdfyyqfk/xxfb/17723463.html
217,蜀山区天和园,1580832000,31.813952,117.217562,合肥市,合肥市卫生健康委员会,http://wjw.hefei.gov.cn/ztzl/xxgzbdgrdfyyqfk/xxfb/17723463.html
218,蜀山区当代花园,1580832000,31.836039,117.230356,合肥市,合肥市卫生健康委员会,http://wjw.hefei.gov.cn/ztzl/xxgzbdgrdfyyqfk/xxfb/17723463.html
219,蜀山区颐和阳光100小区,1580832000,31.863989,117.248640,合肥市,合肥市卫生健康委员会,http://wjw.hefei.gov.cn/ztzl/xxgzbdgrdfyyqfk/xxfb/17723463.html
220,蜀山区颐园世家,1580832000,31.805603,117.226992,合肥市,合肥市卫生健康委员会,http://wjw.hefei.gov.cn/ztzl/xxgzbdgrdfyyqfk/xxfb/17723463.html
221,蜀山区龙居山庄天龙居,1580832000,31.871345,117.248282,合肥市,合肥市卫生健康委员会,http://wjw.hefei.gov.cn/ztzl/xxgzbdgrdfyyqfk/xxfb/17723463.html
222,蜀山区安徽电力公司黄山路生活区,1580918400,31.869978,117.214233,合肥市,合肥市卫生健康委员会,http://wjw.hefei.gov.cn/ztzl/xxgzbdgrdfyyqfk/xxfb/17723955.html
223,蜀山区岳西新村B区,1580918400,31.857449,117.230550,合肥市,合肥市卫生健康委员会,http://wjw.hefei.gov.cn/ztzl/xxgzbdgrdfyyqfk/xxfb/17723955.html
224,蜀山区通和易居北苑,1581004800,31.853080,117.254976,合肥市,合肥市卫生健康委员会,http://wjw.hefei.gov.cn/ztzl/xxgzbdgrdfyyqfk/xxfb/17724493.html
225,蜀山区家家景园3期,1581091200,31.864271,117.236133,合肥市,合肥市卫生健康委员会,http://wjw.hefei.gov.cn/ztzl/xxgzbdgrdfyyqfk/xxfb/17724747.html
226,长丰县岗集镇玉成明珠苑,1580832000,31.951995,117.198255,合肥市,合肥市卫生健康委员会,http://wjw.hefei.gov.cn/ztzl/xxgzbdgrdfyyqfk/xxfb/17723463.html
227,长丰县阿奎利亚城品,1580832000,31.962375,117.266196,合肥市,合肥市卫生健康委员会,http://wjw.hefei.gov.cn/ztzl/xxgzbdgrdfyyqfk/xxfb/17723463.html
228,长丰县下塘镇顾圩村,1581004800,32.206346,117.266194,合肥市,合肥市卫生健康委员会,http://wjw.hefei.gov.cn/ztzl/xxgzbdgrdfyyqfk/xxfb/17724493.html
229,长丰县北城世纪城一期颐徽苑,1581091200,32.011491,117.251323,合肥市,合肥市卫生健康委员会,http://wjw.hefei.gov.cn/ztzl/xxgzbdgrdfyyqfk/xxfb/17724747.html
230,长丰县北城明珠小区,1581091200,31.976846,117.266670,合肥市,合肥市卫生健康委员会,http://wjw.hefei.gov.cn/ztzl/xxgzbdgrdfyyqfk/xxfb/17724747.html
231,高新区岭湖墅,1580832000,31.829171,117.155676,合肥市,合肥市卫生健康委员会,http://wjw.hefei.gov.cn/ztzl/xxgzbdgrdfyyqfk/xxfb/17723463.html
232,南陵县新世纪花园,1580918400,30.920851,118.347234,芜湖市,芜湖发布,https://mp.weixin.qq.com/s/Q70CvVJdptDGY-UxB8G3UA
233,南陵县籍山镇东门大桥天禧楼小区,1580918400,30.925113,118.355562,芜湖市,芜湖发布,https://mp.weixin.qq.com/s/Q70CvVJdptDGY-UxB8G3UA
234,弋江区中南街道江岸明珠,1580918400,31.322160,118.376634,芜湖市,芜湖发布,https://mp.weixin.qq.com/s/Q70CvVJdptDGY-UxB8G3UA
235,弋江区南瑞街道江城国际瑞华苑,1580918400,31.307304,118.400672,芜湖市,芜湖发布,https://mp.weixin.qq.com/s/Q70CvVJdptDGY-UxB8G3UA
236,弋江区江岸明珠小区,1581091200,31.322160,118.376634,芜湖市,芜湖发布,https://mp.weixin.qq.com/s/Ic66yNooHoSoIl_kSCm9AQ
237,无为市严桥镇响山中学,1580918400,31.448875,117.805383,芜湖市,芜湖发布,https://mp.weixin.qq.com/s/Q70CvVJdptDGY-UxB8G3UA
238,无为市无城镇凤河路金河小区,1580918400,31.313418,117.912118,芜湖市,芜湖发布,https://mp.weixin.qq.com/s/Q70CvVJdptDGY-UxB8G3UA
239,无为市无城镇府苑小区,1580918400,31.310804,117.906337,芜湖市,芜湖发布,https://mp.weixin.qq.com/s/Q70CvVJdptDGY-UxB8G3UA
240,无为市陡沟镇凤凰桥社区薛巷自然村,1580918400,31.422590,118.085809,芜湖市,芜湖发布,https://mp.weixin.qq.com/s/Q70CvVJdptDGY-UxB8G3UA
241,无为市陡沟镇陡沟社区健博花园小区,1580918400,31.361872,118.019844,芜湖市,芜湖发布,https://mp.weixin.qq.com/s/Q70CvVJdptDGY-UxB8G3UA
242,无为市洪巷镇青岗行政村陈一自然村,1581004800,31.100659,117.740261,芜湖市,芜湖发布,https://mp.weixin.qq.com/s/L7yoE3rFUxfVz84qZNYe3A
243,无为市高沟镇健全行政村东湖自然村,1581004800,31.130997,117.932026,芜湖市,芜湖发布,https://mp.weixin.qq.com/s/L7yoE3rFUxfVz84qZNYe3A
244,无为市开城镇羊山行政村羊场自然村,1581004800,31.296798,117.754112,芜湖市,芜湖发布,https://mp.weixin.qq.com/s/L7yoE3rFUxfVz84qZNYe3A
245,芜湖县红杨镇红杨树社区六桥自然村,1580918400,31.071180,118.563904,芜湖市,芜湖发布,https://mp.weixin.qq.com/s/Q70CvVJdptDGY-UxB8G3UA
246,镜湖区七更点社区华盛小区,1580918400,31.332008,118.370360,芜湖市,芜湖发布,https://mp.weixin.qq.com/s/Q70CvVJdptDGY-UxB8G3UA
247,镜湖区凯旋社区绿地伊顿公馆,1580918400,31.336231,118.417622,芜湖市,芜湖发布,https://mp.weixin.qq.com/s/Q70CvVJdptDGY-UxB8G3UA
248,镜湖区文化路社区白金湾小区,1580918400,31.344021,118.393391,芜湖市,芜湖发布,https://mp.weixin.qq.com/s/Q70CvVJdptDGY-UxB8G3UA
249,镜湖区海南渡社区绿地6号地块C区,1580918400,31.333713,118.421963,芜湖市,芜湖发布,https://mp.weixin.qq.com/s/Q70CvVJdptDGY-UxB8G3UA
250,鸠江区清水街道金都檀宫小区,1580918400,31.336493,118.478160,芜湖市,芜湖发布,https://mp.weixin.qq.com/s/Q70CvVJdptDGY-UxB8G3UA
251,鸠江区龙山街道西梁山危化品锚地,1580918400,31.473819,118.414599,芜湖市,芜湖发布,https://mp.weixin.qq.com/s/Q70CvVJdptDGY-UxB8G3UA
252,经开区奇瑞BOBO城H区,1581091200,31.467006,118.403884,芜湖市,芜湖发布,https://mp.weixin.qq.com/s/Ic66yNooHoSoIl_kSCm9AQ
253,裕安区凯旋名门3号楼,1580832000,31.741024,116.479860,六安市,六安发布,http://www.ahwang.cn/newsflash/20200205/1977032.html
254,裕安区华邦新华城,1580832000,31.759554,116.494609,六安市,六安发布,http://www.ahwang.cn/newsflash/20200205/1977032.html
255,裕安区帝都豪园13栋,1580832000,31.746284,116.491356,六安市,六安发布,http://www.ahwang.cn/newsflash/20200205/1977032.html
256,裕安区独山镇茶叶市场,1580832000,31.759393,116.516864,六安市,六安发布,http://www.ahwang.cn/newsflash/20200205/1977032.html
257,裕安区狮子岗黄大路村,1580832000,31.780397,116.221876,六安市,六安发布,http://www.ahwang.cn/newsflash/20200205/1977032.html
258,裕安区苏埠镇祝张路黄莲村岗桥组,1580832000,31.639956,116.402208,六安市,六安发布,http://www.ahwang.cn/newsflash/20200205/1977032.html
259,裕安区西河口镇马林村,1580832000,31.563589,116.282162,六安市,六安发布,http://www.ahwang.cn/newsflash/20200205/1977032.html
260,裕安区青山乡八字岗村汪冲组,1580832000,31.570628,116.399383,六安市,六安发布,http://www.ahwang.cn/newsflash/20200205/1977032.html
261,裕安区西市街道帝都豪园小区,1581004800,31.746378,116.492041,六安市,六安发布,http://www.ahwang.cn/newsflash/20200207/1978447.html
262,金安区中市街道前进社区浙东商贸城D区,1580832000,31.752243,116.503987,六安市,六安发布,http://www.ahwang.cn/newsflash/20200205/1977032.html
263,金安区孙岗镇五十铺村士坤组,1580832000,31.589478,116.658365,六安市,六安发布,http://www.ahwang.cn/newsflash/20200205/1977032.html
264,金安区椿树镇龙穴村张大郢组,1580832000,31.708869,116.666551,六安市,六安发布,http://www.ahwang.cn/newsflash/20200205/1977032.html
265,金安区清水河街道刘园社区海心沙小区,1580832000,31.785706,116.513309,六安市,六安发布,http://www.ahwang.cn/newsflash/20200205/1977032.html
266,金寨县关庙乡关庙村,1580832000,31.504335,115.504802,六安市,六安发布,http://www.ahwang.cn/newsflash/20200205/1977032.html
267,金寨县南溪镇南溪村,1580832000,31.521225,115.647064,六安市,六安发布,http://www.ahwang.cn/newsflash/20200205/1977032.html
268,金寨县吴家店镇街道,1580832000,31.289393,115.584767,六安市,六安发布,http://www.ahwang.cn/newsflash/20200205/1977032.html
269,金寨县果子园乡姚冲村,1580832000,31.352143,115.651988,六安市,六安发布,http://www.ahwang.cn/newsflash/20200205/1977032.html
270,金寨县梅山镇明逸城小区,1580832000,31.682990,115.885638,六安市,六安发布,http://www.ahwang.cn/newsflash/20200205/1977032.html
271,金寨县梅山镇香港花园小区,1580832000,31.728375,115.946647,六安市,六安发布,http://www.ahwang.cn/newsflash/20200205/1977032.html
272,金寨县汤汇镇豹迹岩村,1580832000,31.649671,115.587547,六安市,六安发布,http://www.ahwang.cn/newsflash/20200205/1977032.html
273,金寨县铁冲乡街道,1580832000,31.750095,115.687462,六安市,六安发布,http://www.ahwang.cn/newsflash/20200205/1977032.html
274,金寨县汤家汇镇,1581004800,31.615341,115.594452,六安市,六安发布,http://www.ahwang.cn/newsflash/20200207/1978447.html
275,霍山县佛子岭镇通水灌村,1580832000,31.368470,116.312856,六安市,六安发布,http://www.ahwang.cn/newsflash/20200205/1977032.html
276,霍山县衡山镇上元街社区,1580832000,31.408851,116.322811,六安市,六安发布,http://www.ahwang.cn/newsflash/20200205/1977032.html
277,霍山县衡山镇南岳村,1580832000,31.401283,116.318385,六安市,六安发布,http://www.ahwang.cn/newsflash/20200205/1977032.html
278,霍山县衡山镇南潭社区,1580832000,31.408863,116.335518,六安市,六安发布,http://www.ahwang.cn/newsflash/20200205/1977032.html
279,霍山县衡山镇和顺花园D区,1580832000,31.408851,116.322811,六安市,六安发布,http://www.ahwang.cn/newsflash/20200205/1977032.html
280,霍山县衡山镇文峰社区,1580832000,31.403369,116.345584,六安市,六安发布,http://www.ahwang.cn/newsflash/20200205/1977032.html
281,霍山县衡山镇荷香社区,1580832000,31.407407,116.338837,六安市,六安发布,http://www.ahwang.cn/newsflash/20200205/1977032.html
282,霍山县衡山镇衡山社区,1580832000,31.400021,116.339545,六安市,六安发布,http://www.ahwang.cn/newsflash/20200205/1977032.html
283,霍山县衡山镇西大街社区,1580832000,31.412094,116.329669,六安市,六安发布,http://www.ahwang.cn/newsflash/20200205/1977032.html
284,霍山县黑石渡镇新店河村,1580832000,31.438337,116.234347,六安市,六安发布,http://www.ahwang.cn/newsflash/20200205/1977032.html
285,霍山县与儿街镇儿街社区,1580832000,31.391697,116.456435,六安市,六安发布,http://www.ahwang.cn/newsflash/20200205/1977032.html
286,霍山县与儿街镇山王河村,1580832000,31.435907,116.404864,六安市,六安发布,http://www.ahwang.cn/newsflash/20200205/1977032.html
287,霍山县与儿街镇,1581004800,31.392458,116.453473,六安市,六安发布,http://www.ahwang.cn/newsflash/20200207/1978447.html
288,霍山县佛子岭镇,1581004800,31.366200,116.261771,六安市,六安发布,http://www.ahwang.cn/newsflash/20200207/1978447.html
289,霍山县经济开发区,1581004800,31.430634,116.391224,六安市,六安发布,http://www.ahwang.cn/newsflash/20200207/1978447.html
290,霍山县衡山镇,1581004800,31.408851,116.322811,六安市,六安发布,http://www.ahwang.cn/newsflash/20200207/1978447.html
291,霍邱县城关镇玉泉社区惠民小区,1580832000,32.344400,116.286762,六安市,六安发布,http://www.ahwang.cn/newsflash/20200205/1977032.html
292,霍邱县宋店乡留城寺村老庄组,1580832000,32.186675,116.225814,六安市,六安发布,http://www.ahwang.cn/newsflash/20200205/1977032.html
293,霍邱县开发区马圩村学田组,1580832000,32.080500,116.032995,六安市,六安发布,http://www.ahwang.cn/newsflash/20200205/1977032.html
294,霍邱县范桥镇刘庙村北下组,1580832000,32.453879,116.036000,六安市,六安发布,http://www.ahwang.cn/newsflash/20200205/1977032.html
295,霍邱县高塘镇新桥村岗头组,1580832000,32.390202,116.071095,六安市,六安发布,http://www.ahwang.cn/newsflash/20200205/1977032.html
296,霍邱县龙潭镇龙王庙村南楼组,1580832000,32.107638,115.958842,六安市,六安发布,http://www.ahwang.cn/newsflash/20200205/1977032.html
297,霍邱县龙潭镇,1581004800,32.199019,116.000648,六安市,六安发布,http://www.ahwang.cn/newsflash/20200207/1978447.html
298,太湖县小池镇中心村桥头组,1580918400,30.519051,116.436267,安庆市,安庆市卫生健康委员会,http://wjw.anqing.gov.cn/13971952/97829566.html
299,太湖县新仓镇金鸡村蔡榜组,1580918400,30.435545,116.405158,安庆市,安庆市卫生健康委员会,http://wjw.anqing.gov.cn/13971952/97829566.html
300,太湖县晋熙镇天高财富广场,1580918400,30.451171,116.329881,安庆市,安庆市卫生健康委员会,http://wjw.anqing.gov.cn/13971952/97829566.html
301,宜秀区大龙山镇百华村何洼组,1580918400,30.632863,117.014637,安庆市,安庆市卫生健康委员会,http://wjw.anqing.gov.cn/13971952/97829566.html
302,宜秀区白泽湖乡大枫村大塘组,1580918400,30.618767,117.132332,安庆市,安庆市卫生健康委员会,http://wjw.anqing.gov.cn/13971952/97829566.html
303,宿松县佐坝乡环湖村桂咀组,1580918400,30.000165,116.109215,安庆市,安庆市卫生健康委员会,http://wjw.anqing.gov.cn/13971952/97829566.html
304,宿松县佐坝乡碧岭村徐岭组,1580918400,30.115938,116.110728,安庆市,安庆市卫生健康委员会,http://wjw.anqing.gov.cn/13971952/97829566.html
305,宿松县北浴乡马厂村曹湾组,1580918400,30.387221,115.959412,安庆市,安庆市卫生健康委员会,http://wjw.anqing.gov.cn/13971952/97829566.html
306,宿松县复兴镇套口村五社组,1580918400,29.912951,116.542960,安庆市,安庆市卫生健康委员会,http://wjw.anqing.gov.cn/13971952/97829566.html
307,宿松县孚玉镇光明社区棉麻新居小区,1580918400,30.170667,116.124540,安庆市,安庆市卫生健康委员会,http://wjw.anqing.gov.cn/13971952/97829566.html
308,宿松县汇口镇团结村新埂组,1580918400,29.870868,116.276261,安庆市,安庆市卫生健康委员会,http://wjw.anqing.gov.cn/13971952/97829566.html
309,宿松县破凉镇雪镇村阳田组,1580918400,30.232761,116.177294,安庆市,安庆市卫生健康委员会,http://wjw.anqing.gov.cn/13971952/97829566.html
310,宿松县长铺镇马塘村余西组,1580918400,30.185353,116.190831,安庆市,安庆市卫生健康委员会,http://wjw.anqing.gov.cn/13971952/97829566.html
311,宿松县孚玉镇梨园新村小区,1581091200,30.159041,116.133091,安庆市,安庆市卫生健康委员会,http://wjw.anqing.gov.cn/13971952/98087944.html
312,岳西县冶溪镇琥珀村琥珀组,1580918400,30.745996,115.917811,安庆市,安庆市卫生健康委员会,http://wjw.anqing.gov.cn/13971952/97829566.html
313,岳西县古坊乡下坊村宁畈组,1580918400,30.884518,115.950757,安庆市,安庆市卫生健康委员会,http://wjw.anqing.gov.cn/13971952/97829566.html
314,岳西县天堂镇城东社区小城宝邸小区,1580918400,30.856212,116.378092,安庆市,安庆市卫生健康委员会,http://wjw.anqing.gov.cn/13971952/97829566.html
315,岳西县天堂镇阳光小区,1580918400,30.851180,116.375900,安庆市,安庆市卫生健康委员会,http://wjw.anqing.gov.cn/13971952/97829566.html
316,岳西县店前镇店前村李屋组,1580918400,30.732744,116.021065,安庆市,安庆市卫生健康委员会,http://wjw.anqing.gov.cn/13971952/97829566.html
317,岳西县河图镇皖源村河湾组,1580918400,30.920665,115.995422,安庆市,安庆市卫生健康委员会,http://wjw.anqing.gov.cn/13971952/97829566.html
318,岳西县白帽镇余河村粮油组,1580918400,30.818348,115.920950,安庆市,安庆市卫生健康委员会,http://wjw.anqing.gov.cn/13971952/97829566.html
319,怀宁县凉亭乡双湖村庙兴组,1580918400,30.738652,116.946919,安庆市,安庆市卫生健康委员会,http://wjw.anqing.gov.cn/13971952/97829566.html
320,怀宁县凉亭乡双湖村珠林组,1580918400,30.749256,116.938410,安庆市,安庆市卫生健康委员会,http://wjw.anqing.gov.cn/13971952/97829566.html
321,怀宁县马庙镇鹿苑村双桂组,1580918400,30.745301,116.742959,安庆市,安庆市卫生健康委员会,http://wjw.anqing.gov.cn/13971952/97829566.html
322,怀宁县黄墩镇高楼村团结组,1580918400,30.619083,116.780515,安庆市,安庆市卫生健康委员会,http://wjw.anqing.gov.cn/13971952/97829566.html
323,怀宁县高河镇黄梅阁小区,1581004800,30.729357,116.836517,安庆市,安庆市卫生健康委员会,http://wjw.anqing.gov.cn/13971952/97937650.html
324,怀宁县石牌镇广丰村新建组,1580918400,30.408811,116.710195,安庆市,安庆市卫生健康委员会,http://wjw.anqing.gov.cn/13971952/97829566.html
325,怀宁县平山镇鸣凤村胜天组,1581177600,30.468977,116.658617,安庆市,安庆市卫生健康委员会,http://wjw.anqing.gov.cn/13971952/98211011.html
326,望江县华阳镇计渡村石闸三组,1580918400,30.091771,116.721807,安庆市,安庆市卫生健康委员会,http://wjw.anqing.gov.cn/13971952/97829566.html
327,望江县赛口镇兴龙村,1580918400,30.357596,116.793587,安庆市,安庆市卫生健康委员会,http://wjw.anqing.gov.cn/13971952/97829566.html
328,望江县长岭镇后埠村同东屋,1580918400,30.243604,116.594989,安庆市,安庆市卫生健康委员会,http://wjw.anqing.gov.cn/13971952/97829566.html
329,桐城市双港镇双港镇民畈村新民组,1580918400,30.789615,116.978380,安庆市,安庆市卫生健康委员会,http://wjw.anqing.gov.cn/13971952/97829566.html
330,桐城市双港镇潘赛村西瓜组,1580918400,30.808265,117.004673,安庆市,安庆市卫生健康委员会,http://wjw.anqing.gov.cn/13971952/97829566.html
331,桐城市文昌街道公园社区粮食局宿舍,1580918400,31.059799,116.958590,安庆市,安庆市卫生健康委员会,http://wjw.anqing.gov.cn/13971952/97829566.html
332,桐城市文昌街道石河村大隔组,1580918400,31.036027,116.953370,安庆市,安庆市卫生健康委员会,http://wjw.anqing.gov.cn/13971952/97829566.html
333,桐城市新渡镇双墩村合胜组,1580918400,30.823142,116.852419,安庆市,安庆市卫生健康委员会,http://wjw.anqing.gov.cn/13971952/97829566.html
334,桐城市新渡镇罗潭村罗潭组,1580918400,30.856103,116.895526,安庆市,安庆市卫生健康委员会,http://wjw.anqing.gov.cn/13971952/97829566.html
335,桐城市范岗镇棋盘岭村张老屋队,1580918400,30.945441,116.914485,安庆市,安庆市卫生健康委员会,http://wjw.anqing.gov.cn/13971952/97829566.html
336,桐城市龙眠街道碧桂园小区,1580918400,31.066606,116.979241,安庆市,安庆市卫生健康委员会,http://wjw.anqing.gov.cn/13971952/97829566.html
337,桐城市龙眠街道长生社区三隔组,1580918400,31.066606,116.979241,安庆市,安庆市卫生健康委员会,http://wjw.anqing.gov.cn/13971952/97829566.html
338,桐城市龙眠街道阅城国际小区,1580918400,31.050209,116.972398,安庆市,安庆市卫生健康委员会,http://wjw.anqing.gov.cn/13971952/97829566.html
339,桐城市龙眠街道黄燕村横排组,1580918400,31.111214,116.894763,安庆市,安庆市卫生健康委员会,http://wjw.anqing.gov.cn/13971952/97829566.html
340,桐城市双港镇民畈村新民组,1581091200,30.789615,116.978380,安庆市,安庆市卫生健康委员会,http://wjw.anqing.gov.cn/13971952/98087944.html
341,桐城市新渡镇永久村程西组,1581091200,30.930509,116.899330,安庆市,安庆市卫生健康委员会,http://wjw.anqing.gov.cn/13971952/98087944.html
342,桐城市银杏花园小区,1581177600,30.825000,116.950338,安庆市,安庆市卫生健康委员会,http://wjw.anqing.gov.cn/13971952/98211011.html
343,潜山市梅城镇水岸江南B区,1580918400,30.642256,116.591583,安庆市,安庆市卫生健康委员会,http://wjw.anqing.gov.cn/13971952/97829566.html
344,潜山市源潭镇田墩新村,1580918400,30.900037,116.687143,安庆市,安庆市卫生健康委员会,http://wjw.anqing.gov.cn/13971952/97829566.html
345,经开区菱北街道菱建小区,1580918400,30.545150,117.073306,安庆市,安庆市卫生健康委员会,http://wjw.anqing.gov.cn/13971952/97829566.html
346,经开区菱北街道香樟里小区,1580918400,30.541470,117.066838,安庆市,安庆市卫生健康委员会,http://wjw.anqing.gov.cn/13971952/97829566.html
347,经开区景湖嘉苑小区,1581004800,30.536623,117.079920,安庆市,安庆市卫生健康委员会,http://wjw.anqing.gov.cn/13971952/97937650.html
348,迎江区华中路街道御景国际小区,1580918400,30.518034,117.060087,安庆市,安庆市卫生健康委员会,http://wjw.anqing.gov.cn/13971952/97829566.html
349,迎江区滨江街道碧桂园1号公园小区,1580918400,30.513621,117.050441,安庆市,安庆市卫生健康委员会,http://wjw.anqing.gov.cn/13971952/97829566.html
350,大观区关岳庙街二监宿舍小区,1581004800,30.517533,117.044466,安庆市,安庆市卫生健康委员会,http://wjw.anqing.gov.cn/13971952/97937650.html
351,淮上区吴小街镇通城紫都10栋,1580918400,32.975007,117.400728,蚌埠市,蚌埠发布,https://mp.weixin.qq.com/s/Y53KNOwQF9CTE7YTajYqCQ
352,淮上区小蚌埠镇外滩花园20栋,1580918400,32.974274,117.371659,蚌埠市,蚌埠发布,https://mp.weixin.qq.com/s/Y53KNOwQF9CTE7YTajYqCQ
353,淮上区小蚌埠镇荷花园小区一期A5号楼,1580918400,32.978123,117.385658,蚌埠市,蚌埠发布,https://mp.weixin.qq.com/s/Y53KNOwQF9CTE7YTajYqCQ
354,淮上区梅桥镇淝南村,1580918400,33.039074,117.306476,蚌埠市,蚌埠发布,https://mp.weixin.qq.com/s/Y53KNOwQF9CTE7YTajYqCQ
355,淮上区淮滨街道上河时代北区,1581004800,32.975337,117.372560,蚌埠市,蚌埠发布,https://mp.weixin.qq.com/s?__biz=MzAxOTExMTM3NQ==&mid=2651331052&idx=1&sn=13cb6ef68376c18b124ce2fd446a04fd&chksm=8030b54cb7473c5a392a90f452bc166e963b26519b12e7944528068717e92f8e0ee57f2236bc&mpshare=1&scene=1&srcid=&sharer_sharetime=1581048616223&sharer_shareid=b23a8b99c8fb6467c5a4d574afe7d087#rd
356,淮上区淮滨街道上河时代北区20栋,1581091200,32.975337,117.372560,蚌埠市,蚌埠发布,https://mp.weixin.qq.com/s/oWfsQVfoQKrpJ19qrCjo7Q
357,禹会区张公山街道张公山二村对面郊区机关宿舍楼,1580918400,32.931119,117.338451,蚌埠市,蚌埠发布,https://mp.weixin.qq.com/s/Y53KNOwQF9CTE7YTajYqCQ
358,禹会区张公山街道张公山北门制钉厂,1580918400,32.927299,117.348385,蚌埠市,蚌埠发布,https://mp.weixin.qq.com/s/Y53KNOwQF9CTE7YTajYqCQ
359,禹会区纬四街道胜利公寓2栋,1580918400,32.944424,117.355372,蚌埠市,蚌埠发布,https://mp.weixin.qq.com/s/Y53KNOwQF9CTE7YTajYqCQ
360,禹会区钓鱼台街道锦绣香堤B区13栋,1580918400,32.919235,117.354878,蚌埠市,蚌埠发布,https://mp.weixin.qq.com/s/Y53KNOwQF9CTE7YTajYqCQ
361,禹会区钓鱼台街道喜盈门二期,1581004800,32.919480,117.355299,蚌埠市,蚌埠发布,https://mp.weixin.qq.com/s?__biz=MzAxOTExMTM3NQ==&mid=2651331052&idx=1&sn=13cb6ef68376c18b124ce2fd446a04fd&chksm=8030b54cb7473c5a392a90f452bc166e963b26519b12e7944528068717e92f8e0ee57f2236bc&mpshare=1&scene=1&srcid=&sharer_sharetime=1581048616223&sharer_shareid=b23a8b99c8fb6467c5a4d574afe7d087#rd
362,禹会区张公山派出所旁,1581091200,32.932409,117.339520,蚌埠市,蚌埠发布,https://mp.weixin.qq.com/s/oWfsQVfoQKrpJ19qrCjo7Q
363,蚌山区宏业村街道万达广场C区3号楼,1580918400,32.925993,117.366380,蚌埠市,蚌埠发布,https://mp.weixin.qq.com/s/Y53KNOwQF9CTE7YTajYqCQ
364,蚌山区青年街道同乐园小区8号楼,1580918400,32.948380,117.368911,蚌埠市,蚌埠发布,https://mp.weixin.qq.com/s/Y53KNOwQF9CTE7YTajYqCQ
365,蚌山区青年街道大舞台小区1栋,1580918400,32.946442,117.367340,蚌埠市,蚌埠发布,https://mp.weixin.qq.com/s/Y53KNOwQF9CTE7YTajYqCQ
366,蚌山区黄庄街道新天地小区,1581004800,32.940904,117.364958,蚌埠市,蚌埠发布,https://mp.weixin.qq.com/s?__biz=MzAxOTExMTM3NQ==&mid=2651331052&idx=1&sn=13cb6ef68376c18b124ce2fd446a04fd&chksm=8030b54cb7473c5a392a90f452bc166e963b26519b12e7944528068717e92f8e0ee57f2236bc&mpshare=1&scene=1&srcid=&sharer_sharetime=1581048616223&sharer_shareid=b23a8b99c8fb6467c5a4d574afe7d087#rd
367,蚌山区黄庄街道水游城B区7栋,1581091200,32.925043,117.402996,蚌埠市,蚌埠发布,https://mp.weixin.qq.com/s/oWfsQVfoQKrpJ19qrCjo7Q
368,龙子湖区东升街道东方新天地小区18栋,1580918400,32.955075,117.390984,蚌埠市,蚌埠发布,https://mp.weixin.qq.com/s/Y53KNOwQF9CTE7YTajYqCQ
369,龙子湖区延安街道隆华小区2栋,1580918400,32.946615,117.380373,蚌埠市,蚌埠发布,https://mp.weixin.qq.com/s/Y53KNOwQF9CTE7YTajYqCQ
370,龙子湖区治淮街道长淮路270号水科新楼,1580918400,32.958032,117.382514,蚌埠市,蚌埠发布,https://mp.weixin.qq.com/s/Y53KNOwQF9CTE7YTajYqCQ
371,龙子湖区解放街道广厦小区2栋,1580918400,32.953713,117.396077,蚌埠市,蚌埠发布,https://mp.weixin.qq.com/s/Y53KNOwQF9CTE7YTajYqCQ
372,龙子湖区东升街道东方新天地,1581004800,32.955075,117.390984,蚌埠市,蚌埠发布,https://mp.weixin.qq.com/s?__biz=MzAxOTExMTM3NQ==&mid=2651331052&idx=1&sn=13cb6ef68376c18b124ce2fd446a04fd&chksm=8030b54cb7473c5a392a90f452bc166e963b26519b12e7944528068717e92f8e0ee57f2236bc&mpshare=1&scene=1&srcid=&sharer_sharetime=1581048616223&sharer_shareid=b23a8b99c8fb6467c5a4d574afe7d087#rd
373,龙子湖区东升街道交通路186号,1581004800,32.955009,117.384132,蚌埠市,蚌埠发布,https://mp.weixin.qq.com/s?__biz=MzAxOTExMTM3NQ==&mid=2651331052&idx=1&sn=13cb6ef68376c18b124ce2fd446a04fd&chksm=8030b54cb7473c5a392a90f452bc166e963b26519b12e7944528068717e92f8e0ee57f2236bc&mpshare=1&scene=1&srcid=&sharer_sharetime=1581048616223&sharer_shareid=b23a8b99c8fb6467c5a4d574afe7d087#rd
374,龙子湖区延安街道中铁都市家园,1581004800,32.946895,117.392902,蚌埠市,蚌埠发布,https://mp.weixin.qq.com/s?__biz=MzAxOTExMTM3NQ==&mid=2651331052&idx=1&sn=13cb6ef68376c18b124ce2fd446a04fd&chksm=8030b54cb7473c5a392a90f452bc166e963b26519b12e7944528068717e92f8e0ee57f2236bc&mpshare=1&scene=1&srcid=&sharer_sharetime=1581048616223&sharer_shareid=b23a8b99c8fb6467c5a4d574afe7d087#rd
375,龙子湖区延安街道延安一村,1581004800,32.955459,117.377678,蚌埠市,蚌埠发布,https://mp.weixin.qq.com/s?__biz=MzAxOTExMTM3NQ==&mid=2651331052&idx=1&sn=13cb6ef68376c18b124ce2fd446a04fd&chksm=8030b54cb7473c5a392a90f452bc166e963b26519b12e7944528068717e92f8e0ee57f2236bc&mpshare=1&scene=1&srcid=&sharer_sharetime=1581048616223&sharer_shareid=b23a8b99c8fb6467c5a4d574afe7d087#rd
376,龙子湖区治淮街道东苑小区,1581004800,32.952188,117.377980,蚌埠市,蚌埠发布,https://mp.weixin.qq.com/s?__biz=MzAxOTExMTM3NQ==&mid=2651331052&idx=1&sn=13cb6ef68376c18b124ce2fd446a04fd&chksm=8030b54cb7473c5a392a90f452bc166e963b26519b12e7944528068717e92f8e0ee57f2236bc&mpshare=1&scene=1&srcid=&sharer_sharetime=1581048616223&sharer_shareid=b23a8b99c8fb6467c5a4d574afe7d087#rd
377,龙子湖区治淮街道延安三区,1581004800,32.955047,117.381299,蚌埠市,蚌埠发布,https://mp.weixin.qq.com/s?__biz=MzAxOTExMTM3NQ==&mid=2651331052&idx=1&sn=13cb6ef68376c18b124ce2fd446a04fd&chksm=8030b54cb7473c5a392a90f452bc166e963b26519b12e7944528068717e92f8e0ee57f2236bc&mpshare=1&scene=1&srcid=&sharer_sharetime=1581048616223&sharer_shareid=b23a8b99c8fb6467c5a4d574afe7d087#rd
378,龙子湖区治淮街道淮河路854号,1581004800,32.950939,117.380522,蚌埠市,蚌埠发布,https://mp.weixin.qq.com/s?__biz=MzAxOTExMTM3NQ==&mid=2651331052&idx=1&sn=13cb6ef68376c18b124ce2fd446a04fd&chksm=8030b54cb7473c5a392a90f452bc166e963b26519b12e7944528068717e92f8e0ee57f2236bc&mpshare=1&scene=1&srcid=&sharer_sharetime=1581048616223&sharer_shareid=b23a8b99c8fb6467c5a4d574afe7d087#rd
379,龙子湖区解放街道广厦小区,1581004800,32.953713,117.396077,蚌埠市,蚌埠发布,https://mp.weixin.qq.com/s?__biz=MzAxOTExMTM3NQ==&mid=2651331052&idx=1&sn=13cb6ef68376c18b124ce2fd446a04fd&chksm=8030b54cb7473c5a392a90f452bc166e963b26519b12e7944528068717e92f8e0ee57f2236bc&mpshare=1&scene=1&srcid=&sharer_sharetime=1581048616223&sharer_shareid=b23a8b99c8fb6467c5a4d574afe7d087#rd
380,龙子湖区解放街道金润名都,1581004800,32.954492,117.398992,蚌埠市,蚌埠发布,https://mp.weixin.qq.com/s?__biz=MzAxOTExMTM3NQ==&mid=2651331052&idx=1&sn=13cb6ef68376c18b124ce2fd446a04fd&chksm=8030b54cb7473c5a392a90f452bc166e963b26519b12e7944528068717e92f8e0ee57f2236bc&mpshare=1&scene=1&srcid=&sharer_sharetime=1581048616223&sharer_shareid=b23a8b99c8fb6467c5a4d574afe7d087#rd
381,龙子湖区东升街道凤阳东路480号东单元,1581091200,32.951316,117.391660,蚌埠市,蚌埠发布,https://mp.weixin.qq.com/s/oWfsQVfoQKrpJ19qrCjo7Q
382,龙子湖区东风街道淮河路854号2单元,1581091200,32.950939,117.380522,蚌埠市,蚌埠发布,https://mp.weixin.qq.com/s/oWfsQVfoQKrpJ19qrCjo7Q
383,龙子湖区解放街道金润名都7栋,1581091200,32.954492,117.398992,蚌埠市,蚌埠发布,https://mp.weixin.qq.com/s/oWfsQVfoQKrpJ19qrCjo7Q
384,洪山区徐东村欧洲花园,1581004800,32.933071,117.329181,蚌埠市,蚌埠发布,https://mp.weixin.qq.com/s?__biz=MzAxOTExMTM3NQ==&mid=2651331052&idx=1&sn=13cb6ef68376c18b124ce2fd446a04fd&chksm=8030b54cb7473c5a392a90f452bc166e963b26519b12e7944528068717e92f8e0ee57f2236bc&mpshare=1&scene=1&srcid=&sharer_sharetime=1581048616223&sharer_shareid=b23a8b99c8fb6467c5a4d574afe7d087#rd
385,经开区淮河社区新新尚层,1581004800,32.939316,117.379507,蚌埠市,蚌埠发布,https://mp.weixin.qq.com/s?__biz=MzAxOTExMTM3NQ==&mid=2651331052&idx=1&sn=13cb6ef68376c18b124ce2fd446a04fd&chksm=8030b54cb7473c5a392a90f452bc166e963b26519b12e7944528068717e92f8e0ee57f2236bc&mpshare=1&scene=1&srcid=&sharer_sharetime=1581048616223&sharer_shareid=b23a8b99c8fb6467c5a4d574afe7d087#rd
386,经开区淮河社区阿卡碧水湾小区,1581004800,32.930415,117.374704,蚌埠市,蚌埠发布,https://mp.weixin.qq.com/s?__biz=MzAxOTExMTM3NQ==&mid=2651331052&idx=1&sn=13cb6ef68376c18b124ce2fd446a04fd&chksm=8030b54cb7473c5a392a90f452bc166e963b26519b12e7944528068717e92f8e0ee57f2236bc&mpshare=1&scene=1&srcid=&sharer_sharetime=1581048616223&sharer_shareid=b23a8b99c8fb6467c5a4d574afe7d087#rd
387,经开区淮河社区香堤荣府,1581004800,32.942664,117.392010,蚌埠市,蚌埠发布,https://mp.weixin.qq.com/s?__biz=MzAxOTExMTM3NQ==&mid=2651331052&idx=1&sn=13cb6ef68376c18b124ce2fd446a04fd&chksm=8030b54cb7473c5a392a90f452bc166e963b26519b12e7944528068717e92f8e0ee57f2236bc&mpshare=1&scene=1&srcid=&sharer_sharetime=1581048616223&sharer_shareid=b23a8b99c8fb6467c5a4d574afe7d087#rd
388,经开区湖滨社区恒大御景湾,1581004800,32.918368,117.405451,蚌埠市,蚌埠发布,https://mp.weixin.qq.com/s?__biz=MzAxOTExMTM3NQ==&mid=2651331052&idx=1&sn=13cb6ef68376c18b124ce2fd446a04fd&chksm=8030b54cb7473c5a392a90f452bc166e963b26519b12e7944528068717e92f8e0ee57f2236bc&mpshare=1&scene=1&srcid=&sharer_sharetime=1581048616223&sharer_shareid=b23a8b99c8fb6467c5a4d574afe7d087#rd
389,经开区湖滨社区湖畔花都,1581004800,32.916202,117.383870,蚌埠市,蚌埠发布,https://mp.weixin.qq.com/s?__biz=MzAxOTExMTM3NQ==&mid=2651331052&idx=1&sn=13cb6ef68376c18b124ce2fd446a04fd&chksm=8030b54cb7473c5a392a90f452bc166e963b26519b12e7944528068717e92f8e0ee57f2236bc&mpshare=1&scene=1&srcid=&sharer_sharetime=1581048616223&sharer_shareid=b23a8b99c8fb6467c5a4d574afe7d087#rd
390,经开区胜利街道大塘名门,1581004800,32.944561,117.379664,蚌埠市,蚌埠发布,https://mp.weixin.qq.com/s?__biz=MzAxOTExMTM3NQ==&mid=2651331052&idx=1&sn=13cb6ef68376c18b124ce2fd446a04fd&chksm=8030b54cb7473c5a392a90f452bc166e963b26519b12e7944528068717e92f8e0ee57f2236bc&mpshare=1&scene=1&srcid=&sharer_sharetime=1581048616223&sharer_shareid=b23a8b99c8fb6467c5a4d574afe7d087#rd
391,经开区胜利街道金融小区,1581004800,32.943102,117.384658,蚌埠市,蚌埠发布,https://mp.weixin.qq.com/s?__biz=MzAxOTExMTM3NQ==&mid=2651331052&idx=1&sn=13cb6ef68376c18b124ce2fd446a04fd&chksm=8030b54cb7473c5a392a90f452bc166e963b26519b12e7944528068717e92f8e0ee57f2236bc&mpshare=1&scene=1&srcid=&sharer_sharetime=1581048616223&sharer_shareid=b23a8b99c8fb6467c5a4d574afe7d087#rd
392,经开区胜利街道华景家园,1581004800,32.940293,117.368095,蚌埠市,蚌埠发布,https://mp.weixin.qq.com/s?__biz=MzAxOTExMTM3NQ==&mid=2651331052&idx=1&sn=13cb6ef68376c18b124ce2fd446a04fd&chksm=8030b54cb7473c5a392a90f452bc166e963b26519b12e7944528068717e92f8e0ee57f2236bc&mpshare=1&scene=1&srcid=&sharer_sharetime=1581048616223&sharer_shareid=b23a8b99c8fb6467c5a4d574afe7d087#rd
393,经开区胜利街道东航校小区25栋,1581091200,32.943331,117.378838,蚌埠市,蚌埠发布,https://mp.weixin.qq.com/s/oWfsQVfoQKrpJ19qrCjo7Q
394,经开区长淮卫镇卫东村,1581091200,32.971152,117.500902,蚌埠市,蚌埠发布,https://mp.weixin.qq.com/s/oWfsQVfoQKrpJ19qrCjo7Q
395,义安区钟鸣镇九榔村,1581004800,30.961439,118.137988,铜陵市,安徽网,https://view.inews.qq.com/a/20200207A0EQKL00
396,无为市牛埠镇土桥街道,1581004800,30.953992,117.862383,铜陵市,安徽网,https://view.inews.qq.com/a/20200207A0EQKL00
397,枞阳县会宫镇庆华村,1581004800,30.857714,117.277037,铜陵市,安徽网,https://view.inews.qq.com/a/20200207A0EQKL00
398,枞阳县会宫镇拔茅村,1581004800,30.828103,117.315596,铜陵市,安徽网,https://view.inews.qq.com/a/20200207A0EQKL00
399,枞阳县枞阳镇郭桥村,1581004800,30.748075,117.323706,铜陵市,安徽网,https://view.inews.qq.com/a/20200207A0EQKL00
400,枞阳县横埠镇左山村,1581004800,30.898759,117.528871,铜陵市,安徽网,https://view.inews.qq.com/a/20200207A0EQKL00
401,枞阳县横埠镇建材大市场,1581004800,30.905082,117.512555,铜陵市,安徽网,https://view.inews.qq.com/a/20200207A0EQKL00
402,枞阳县横埠镇方正村,1581004800,30.861608,117.446267,铜陵市,安徽网,https://view.inews.qq.com/a/20200207A0EQKL00
403,枞阳县横埠镇龙山村,1581004800,30.867565,117.495885,铜陵市,安徽网,https://view.inews.qq.com/a/20200207A0EQKL00
404,枞阳县浮山镇向阳村,1581004800,30.914565,117.259150,铜陵市,安徽网,https://view.inews.qq.com/a/20200207A0EQKL00
405,枞阳县浮山镇浮山村,1581004800,30.915704,117.286397,铜陵市,安徽网,https://view.inews.qq.com/a/20200207A0EQKL00
406,枞阳县白柳镇龙井村,1581004800,30.977231,117.338608,铜陵市,安徽网,https://view.inews.qq.com/a/20200207A0EQKL00
407,枞阳县藕山镇藕山村,1581004800,30.727894,117.403002,铜陵市,安徽网,https://view.inews.qq.com/a/20200207A0EQKL00
408,枞阳县铁铜乡新丰村,1581004800,30.663768,117.225926,铜陵市,安徽网,https://view.inews.qq.com/a/20200207A0EQKL00
409,枞阳县雨坛镇先锋村,1581004800,30.795442,117.164058,铜陵市,安徽网,https://view.inews.qq.com/a/20200207A0EQKL00
410,枞阳县钱铺镇将军村,1581091200,30.953291,117.490703,铜陵市,铜陵市卫生健康委员会,http://wsjkw.tl.gov.cn/1982/1983/202002/t20200208_938575.html
411,铜官区天山社区,1581004800,30.962060,117.880827,铜陵市,安徽网,https://view.inews.qq.com/a/20200207A0EQKL00
412,铜官区机厂新村,1581004800,30.924985,117.797029,铜陵市,安徽网,https://view.inews.qq.com/a/20200207A0EQKL00
413,临泉县土陂乡运河行政村,1581004800,32.781255,115.485670,阜阳市,阜阳市卫生健康委,http://wjw.fy.gov.cn/content/detail/5e3cc8117f8b9a0b3f8b45a8.html
414,临泉县土陂乡陈胡行政村,1581004800,32.805164,115.482852,阜阳市,阜阳市卫生健康委,http://wjw.fy.gov.cn/content/detail/5e3cc8117f8b9a0b3f8b45a8.html
415,临泉县城东街道姜子牙广场北,1581004800,33.064135,115.270758,阜阳市,阜阳市卫生健康委,http://wjw.fy.gov.cn/content/detail/5e3cc8117f8b9a0b3f8b45a8.html
416,临泉县城东街道文王社区,1581004800,33.073129,115.271946,阜阳市,阜阳市卫生健康委,http://wjw.fy.gov.cn/content/detail/5e3cc8117f8b9a0b3f8b45a8.html
417,临泉县城东街道港口路天祥小区西,1581004800,33.063042,115.273975,阜阳市,阜阳市卫生健康委,http://wjw.fy.gov.cn/content/detail/5e3cc8117f8b9a0b3f8b45a8.html
418,临泉县城东街道老百货公司家属院,1581004800,33.068716,115.283218,阜阳市,阜阳市卫生健康委,http://wjw.fy.gov.cn/content/detail/5e3cc8117f8b9a0b3f8b45a8.html
419,临泉县城关街道戴祖寺行政村,1581004800,33.073481,115.267234,阜阳市,阜阳市卫生健康委,http://wjw.fy.gov.cn/content/detail/5e3cc8117f8b9a0b3f8b45a8.html
420,临泉县城关街道王关庙村,1581004800,33.073083,115.219544,阜阳市,阜阳市卫生健康委,http://wjw.fy.gov.cn/content/detail/5e3cc8117f8b9a0b3f8b45a8.html
421,临泉县城关街道银泉社区,1581004800,33.075734,115.268979,阜阳市,阜阳市卫生健康委,http://wjw.fy.gov.cn/content/detail/5e3cc8117f8b9a0b3f8b45a8.html
422,临泉县城南街道名邦国际花都小区,1581004800,33.047687,115.287559,阜阳市,阜阳市卫生健康委,http://wjw.fy.gov.cn/content/detail/5e3cc8117f8b9a0b3f8b45a8.html
423,临泉县城南街道新城居委会,1581004800,33.052737,115.291208,阜阳市,阜阳市卫生健康委,http://wjw.fy.gov.cn/content/detail/5e3cc8117f8b9a0b3f8b45a8.html
424,临泉县城南街道新城社区,1581004800,33.048110,115.276712,阜阳市,阜阳市卫生健康委,http://wjw.fy.gov.cn/content/detail/5e3cc8117f8b9a0b3f8b45a8.html
425,临泉县城南街道紫薇苑小区,1581004800,33.068716,115.283218,阜阳市,阜阳市卫生健康委,http://wjw.fy.gov.cn/content/detail/5e3cc8117f8b9a0b3f8b45a8.html
426,临泉县姜寨镇姜寨村,1581004800,32.988490,115.001881,阜阳市,阜阳市卫生健康委,http://wjw.fy.gov.cn/content/detail/5e3cc8117f8b9a0b3f8b45a8.html
427,临泉县宋集镇杨小街蒲庄大队,1581004800,32.823285,115.297376,阜阳市,阜阳市卫生健康委,http://wjw.fy.gov.cn/content/detail/5e3cc8117f8b9a0b3f8b45a8.html
428,临泉县宋集镇铜锣湾服饰门面房二楼,1581004800,32.829398,115.287623,阜阳市,阜阳市卫生健康委,http://wjw.fy.gov.cn/content/detail/5e3cc8117f8b9a0b3f8b45a8.html
429,临泉县滑集镇朱集行政村,1581004800,32.753385,115.347876,阜阳市,阜阳市卫生健康委,http://wjw.fy.gov.cn/content/detail/5e3cc8117f8b9a0b3f8b45a8.html
430,临泉县滑集镇滑集村,1581004800,32.747553,115.397170,阜阳市,阜阳市卫生健康委,http://wjw.fy.gov.cn/content/detail/5e3cc8117f8b9a0b3f8b45a8.html
431,临泉县白庙镇姚集村,1581004800,33.076204,115.157346,阜阳市,阜阳市卫生健康委,http://wjw.fy.gov.cn/content/detail/5e3cc8117f8b9a0b3f8b45a8.html
432,临泉县白庙镇油坊村,1581004800,33.076013,115.097724,阜阳市,阜阳市卫生健康委,http://wjw.fy.gov.cn/content/detail/5e3cc8117f8b9a0b3f8b45a8.html
433,临泉县迎仙镇农商行家属楼,1581004800,32.926197,115.167595,阜阳市,阜阳市卫生健康委,http://wjw.fy.gov.cn/content/detail/5e3cc8117f8b9a0b3f8b45a8.html
434,临泉县长官镇大田行政村,1581004800,32.947373,115.295521,阜阳市,阜阳市卫生健康委,http://wjw.fy.gov.cn/content/detail/5e3cc8117f8b9a0b3f8b45a8.html
435,临泉县韦寨镇史寨行政村,1581004800,32.984908,115.136397,阜阳市,阜阳市卫生健康委,http://wjw.fy.gov.cn/content/detail/5e3cc8117f8b9a0b3f8b45a8.html
436,临泉县高塘镇牛刘行政村,1581004800,32.902955,115.381030,阜阳市,阜阳市卫生健康委,http://wjw.fy.gov.cn/content/detail/5e3cc8117f8b9a0b3f8b45a8.html
437,临泉县鲖城镇流鞍行政村,1581004800,33.012479,115.043260,阜阳市,阜阳市卫生健康委,http://wjw.fy.gov.cn/content/detail/5e3cc8117f8b9a0b3f8b45a8.html
438,临泉县鲖城镇鲖阳居委会,1581004800,33.077992,114.995183,阜阳市,阜阳市卫生健康委,http://wjw.fy.gov.cn/content/detail/5e3cc8117f8b9a0b3f8b45a8.html
439,临泉县迎仙镇郑寨行政村,1581091200,32.901269,115.159203,阜阳市,阜阳市卫生健康委,http://wjw.fy.gov.cn/content/detail/5e3e0f1a7f8b9a45198b4587.html
440,太和县原墙镇名利集,1581004800,33.343622,115.702744,阜阳市,阜阳市卫生健康委,http://wjw.fy.gov.cn/content/detail/5e3cc8117f8b9a0b3f8b45a8.html
441,太和县城关镇太和世家,1581004800,33.172311,115.631989,阜阳市,阜阳市卫生健康委,http://wjw.fy.gov.cn/content/detail/5e3cc8117f8b9a0b3f8b45a8.html
442,太和县城关镇锦都花园,1581004800,33.183216,115.624208,阜阳市,阜阳市卫生健康委,http://wjw.fy.gov.cn/content/detail/5e3cc8117f8b9a0b3f8b45a8.html
443,太和县税镇镇孙楼行政村,1581004800,33.235191,115.471153,阜阳市,阜阳市卫生健康委,http://wjw.fy.gov.cn/content/detail/5e3cc8117f8b9a0b3f8b45a8.html
444,太和县税镇镇税南居委会,1581004800,33.232671,115.488035,阜阳市,阜阳市卫生健康委,http://wjw.fy.gov.cn/content/detail/5e3cc8117f8b9a0b3f8b45a8.html
445,太和县马集乡马集村聚鑫宾馆,1581004800,33.354463,115.629749,阜阳市,阜阳市卫生健康委,http://wjw.fy.gov.cn/content/detail/5e3cc8117f8b9a0b3f8b45a8.html
446,界首市邴集乡赵大行政村赵寨村,1581004800,33.454391,115.405295,阜阳市,阜阳市卫生健康委,http://wjw.fy.gov.cn/content/detail/5e3cc8117f8b9a0b3f8b45a8.html
447,阜南县公桥乡孟寨村,1581004800,32.593204,115.526326,阜阳市,阜阳市卫生健康委,http://wjw.fy.gov.cn/content/detail/5e3cc8117f8b9a0b3f8b45a8.html
448,阜南县新村镇张楼村,1581004800,32.864203,115.530318,阜阳市,阜阳市卫生健康委,http://wjw.fy.gov.cn/content/detail/5e3cc8117f8b9a0b3f8b45a8.html
449,阜南县新村镇梁寨村,1581004800,32.904362,115.556121,阜阳市,阜阳市卫生健康委,http://wjw.fy.gov.cn/content/detail/5e3cc8117f8b9a0b3f8b45a8.html
450,阜南县新村镇白营村,1581004800,32.883617,115.585523,阜阳市,阜阳市卫生健康委,http://wjw.fy.gov.cn/content/detail/5e3cc8117f8b9a0b3f8b45a8.html
451,阜南县新村镇鑫东村,1581004800,32.873513,115.538407,阜阳市,阜阳市卫生健康委,http://wjw.fy.gov.cn/content/detail/5e3cc8117f8b9a0b3f8b45a8.html
452,阜南县朱寨镇闵庄村,1581004800,32.703906,115.932992,阜阳市,阜阳市卫生健康委,http://wjw.fy.gov.cn/content/detail/5e3cc8117f8b9a0b3f8b45a8.html
453,阜南县柴集镇柴集村,1581004800,32.818340,115.597701,阜阳市,阜阳市卫生健康委,http://wjw.fy.gov.cn/content/detail/5e3cc8117f8b9a0b3f8b45a8.html
454,阜南县洪河桥镇钐岗村,1581004800,32.462179,115.587454,阜阳市,阜阳市卫生健康委,http://wjw.fy.gov.cn/content/detail/5e3cc8117f8b9a0b3f8b45a8.html
455,阜南县王家坝镇和谐村,1581004800,32.443570,115.636142,阜阳市,阜阳市卫生健康委,http://wjw.fy.gov.cn/content/detail/5e3cc8117f8b9a0b3f8b45a8.html
456,阜南县王店孜乡五岳村,1581004800,32.839665,115.558475,阜阳市,阜阳市卫生健康委,http://wjw.fy.gov.cn/content/detail/5e3cc8117f8b9a0b3f8b45a8.html
457,阜南县王店孜乡刘郢村,1581004800,32.812323,115.520305,阜阳市,阜阳市卫生健康委,http://wjw.fy.gov.cn/content/detail/5e3cc8117f8b9a0b3f8b45a8.html
458,阜南县王店孜乡周集村,1581004800,32.784708,115.510884,阜阳市,阜阳市卫生健康委,http://wjw.fy.gov.cn/content/detail/5e3cc8117f8b9a0b3f8b45a8.html
459,阜南县王店孜乡王寨村,1581004800,32.829106,115.562057,阜阳市,阜阳市卫生健康委,http://wjw.fy.gov.cn/content/detail/5e3cc8117f8b9a0b3f8b45a8.html
460,阜南县王店孜乡高庄村,1581004800,32.796517,115.574973,阜阳市,阜阳市卫生健康委,http://wjw.fy.gov.cn/content/detail/5e3cc8117f8b9a0b3f8b45a8.html
461,阜南县经开区中央豪景小区,1581004800,32.664468,115.637017,阜阳市,阜阳市卫生健康委,http://wjw.fy.gov.cn/content/detail/5e3cc8117f8b9a0b3f8b45a8.html
462,阜南县苗集镇桃园村,1581004800,32.624016,115.666892,阜阳市,阜阳市卫生健康委,http://wjw.fy.gov.cn/content/detail/5e3cc8117f8b9a0b3f8b45a8.html
463,阜南县赵集镇刘大郢,1581004800,32.683465,115.539257,阜阳市,阜阳市卫生健康委,http://wjw.fy.gov.cn/content/detail/5e3cc8117f8b9a0b3f8b45a8.html
464,阜南县赵集镇刘集村,1581004800,32.715855,115.522456,阜阳市,阜阳市卫生健康委,http://wjw.fy.gov.cn/content/detail/5e3cc8117f8b9a0b3f8b45a8.html
465,阜南县郜台乡刘店村,1581004800,32.571532,115.870706,阜阳市,阜阳市卫生健康委,http://wjw.fy.gov.cn/content/detail/5e3cc8117f8b9a0b3f8b45a8.html
466,阜南县王店孜高寨村,1581177600,32.831794,115.531947,阜阳市,阜阳市卫生健康委,http://wjw.fy.gov.cn/content/detail/5e3f5b657f8b9a5d748b456d.html
467,颍上县半岗镇黄连沟村,1581004800,32.515048,116.227923,阜阳市,阜阳市卫生健康委,http://wjw.fy.gov.cn/content/detail/5e3cc8117f8b9a0b3f8b45a8.html
468,颍上县夏桥镇夏桥社区,1581004800,32.650110,116.377577,阜阳市,阜阳市卫生健康委,http://wjw.fy.gov.cn/content/detail/5e3cc8117f8b9a0b3f8b45a8.html
469,颍上县建颍乡吴东村,1581004800,32.719061,116.158947,阜阳市,阜阳市卫生健康委,http://wjw.fy.gov.cn/content/detail/5e3cc8117f8b9a0b3f8b45a8.html
470,颍上县慎城镇下元东村,1581004800,32.628688,116.294115,阜阳市,阜阳市卫生健康委,http://wjw.fy.gov.cn/content/detail/5e3cc8117f8b9a0b3f8b45a8.html
471,颍上县新集镇六联苏庄队,1581004800,32.750279,116.137189,阜阳市,阜阳市卫生健康委,http://wjw.fy.gov.cn/content/detail/5e3cc8117f8b9a0b3f8b45a8.html
472,颍上县江口镇王李村,1581091200,32.810506,116.177552,阜阳市,阜阳市卫生健康委,http://wjw.fy.gov.cn/content/detail/5e3e0f1a7f8b9a45198b4587.html
473,颍东区东平社区和谐佳苑小区,1581004800,32.900218,115.862605,阜阳市,阜阳市卫生健康委,http://wjw.fy.gov.cn/content/detail/5e3cc8117f8b9a0b3f8b45a8.html
474,颍东区正午镇张庙村,1581004800,32.891973,115.997791,阜阳市,阜阳市卫生健康委,http://wjw.fy.gov.cn/content/detail/5e3cc8117f8b9a0b3f8b45a8.html
475,颍东区正午镇横山村,1581004800,32.935252,115.966881,阜阳市,阜阳市卫生健康委,http://wjw.fy.gov.cn/content/detail/5e3cc8117f8b9a0b3f8b45a8.html
476,颍东区正午镇田楼村,1581004800,32.927404,116.012191,阜阳市,阜阳市卫生健康委,http://wjw.fy.gov.cn/content/detail/5e3cc8117f8b9a0b3f8b45a8.html
477,颍东区河东街道京九新村,1581004800,32.919250,115.864230,阜阳市,阜阳市卫生健康委,http://wjw.fy.gov.cn/content/detail/5e3cc8117f8b9a0b3f8b45a8.html
478,颍东区袁寨镇袁寨居委会,1581004800,32.850704,115.943117,阜阳市,阜阳市卫生健康委,http://wjw.fy.gov.cn/content/detail/5e3cc8117f8b9a0b3f8b45a8.html
479,颍东区新华街道办事处新华街道,1581091200,32.966097,115.900430,阜阳市,阜阳市卫生健康委,http://wjw.fy.gov.cn/content/detail/5e3e0f1a7f8b9a45198b4587.html
480,颍州区三合镇新宅村,1581004800,32.838780,115.719033,阜阳市,阜阳市卫生健康委,http://wjw.fy.gov.cn/content/detail/5e3cc8117f8b9a0b3f8b45a8.html
481,颍州区文峰街道办事处万达社区万达华府,1581004800,32.879405,115.825011,阜阳市,阜阳市卫生健康委,http://wjw.fy.gov.cn/content/detail/5e3cc8117f8b9a0b3f8b45a8.html
482,颍州区文峰街道办事处三里岗社区碧桂园,1581004800,32.931618,115.824066,阜阳市,阜阳市卫生健康委,http://wjw.fy.gov.cn/content/detail/5e3cc8117f8b9a0b3f8b45a8.html
483,颍州区文峰街道办事处奎星社区博物馆巷,1581004800,32.899733,115.832090,阜阳市,阜阳市卫生健康委,http://wjw.fy.gov.cn/content/detail/5e3cc8117f8b9a0b3f8b45a8.html
484,颍州区颍西街道办事处西湖社区西城御景小区,1581004800,32.908201,115.801794,阜阳市,阜阳市卫生健康委,http://wjw.fy.gov.cn/content/detail/5e3cc8117f8b9a0b3f8b45a8.html
485,颍州区马寨乡马寨居委会,1581004800,32.932897,115.554429,阜阳市,阜阳市卫生健康委,http://wjw.fy.gov.cn/content/detail/5e3cc8117f8b9a0b3f8b45a8.html
486,颍州区鼓楼街道办事处双龙桥社区汇鑫小区,1581004800,32.905940,115.808382,阜阳市,阜阳市卫生健康委,http://wjw.fy.gov.cn/content/detail/5e3cc8117f8b9a0b3f8b45a8.html
487,颍州区鼓楼街道办事处白衣桥社区临泉路老师范学院院内,1581004800,32.902557,115.809609,阜阳市,阜阳市卫生健康委,http://wjw.fy.gov.cn/content/detail/5e3cc8117f8b9a0b3f8b45a8.html
488,颍州区清河街道办事处九里社区锦华第一郡小区,1581177600,32.870035,115.816489,阜阳市,阜阳市卫生健康委,http://wjw.fy.gov.cn/content/detail/5e3f5b657f8b9a5d748b456d.html
489,颍州区颍西街道办事处城郊社区徽州家园小区,1581177600,32.911932,115.794996,阜阳市,阜阳市卫生健康委,http://wjw.fy.gov.cn/content/detail/5e3f5b657f8b9a5d748b456d.html
490,颍泉区中市街道办事处中泰名城小区,1581004800,32.929897,115.816457,阜阳市,阜阳市卫生健康委,http://wjw.fy.gov.cn/content/detail/5e3cc8117f8b9a0b3f8b45a8.html
491,颍泉区中市街道办事处四中家属院,1581004800,32.950427,115.815292,阜阳市,阜阳市卫生健康委,http://wjw.fy.gov.cn/content/detail/5e3cc8117f8b9a0b3f8b45a8.html
492,颍泉区中市街道办事处海亮上府小区,1581004800,32.936503,115.815458,阜阳市,阜阳市卫生健康委,http://wjw.fy.gov.cn/content/detail/5e3cc8117f8b9a0b3f8b45a8.html
493,颍泉区周棚街道办事处周棚居委会,1581004800,32.997298,115.858725,阜阳市,阜阳市卫生健康委,http://wjw.fy.gov.cn/content/detail/5e3cc8117f8b9a0b3f8b45a8.html
494,颍泉区泉颍办事处祥和居小区,1581004800,32.953549,115.800436,阜阳市,阜阳市卫生健康委,http://wjw.fy.gov.cn/content/detail/5e3cc8117f8b9a0b3f8b45a8.html
495,颍泉区行流镇杨桥村,1581004800,33.091624,115.680207,阜阳市,阜阳市卫生健康委,http://wjw.fy.gov.cn/content/detail/5e3cc8117f8b9a0b3f8b45a8.html
496,阜阳经济技术开发区依心明园,1581091200,32.871734,115.863793,阜阳市,阜阳市卫生健康委,http://wjw.fy.gov.cn/content/detail/5e3e0f1a7f8b9a45198b4587.html
497,兰山区柳青街道,1580572800,35.133014,118.345183,临沂市,临沂市卫生健康委员会,http://wsjsw.linyi.gov.cn/info/1006/12891.htm
498,兰山区银雀山街道,1581091200,35.071100,118.338893,临沂市,临沂市卫生健康委员会,http://wsjsw.linyi.gov.cn/info/1063/12988.htm
499,兰山区兰山街道,1580400000,35.096058,118.321898,临沂市,临沂市卫生健康委员会,http://wsjsw.linyi.gov.cn/info/1063/12868.htm
500,兰山区金雀山街道,1581091200,35.052320,118.357763,临沂市,临沂市卫生健康委员会,http://wsjsw.linyi.gov.cn/info/1063/12961.htm
501,河东区九曲街道,1580400000,35.073927,118.398374,临沂市,临沂市卫生健康委员会,http://wsjsw.linyi.gov.cn/info/1006/12877.htm
502,莒南县板泉镇,1580400000,35.133223,118.701643,临沂市,临沂市卫生健康委员会,http://wsjsw.linyi.gov.cn/info/1006/12877.htm
503,莒南县坪山镇,1581091200,35.180764,118.841973,临沂市,临沂市卫生健康委员会,http://wsjsw.linyi.gov.cn/info/1063/12988.htm
504,费县探沂镇,1580659200,35.209051,118.141359,临沂市,临沂市卫生健康委员会,http://wsjsw.linyi.gov.cn/info/1063/12920.htm
505,临沭县临沭街道,1580745600,34.923087,118.668985,临沂市,临沂市卫生健康委员会,http://wsjsw.linyi.gov.cn/info/1063/12944.htm
506,兰陵县卞庄街道,1580745600,34.866865,118.085024,临沂市,临沂市卫生健康委员会,http://wsjsw.linyi.gov.cn/info/1063/12944.htm
507,平邑县柏林镇,1580745600,35.529689,117.773386,临沂市,临沂市卫生健康委员会,http://wsjsw.linyi.gov.cn/info/1063/12950.htm
508,沂水县许家湖镇,1580400000,35.730072,118.629025,临沂市,临沂市卫生健康委员会,http://wsjsw.linyi.gov.cn/info/1063/12868.htm
509,沂水县道托镇,1580832000,35.901266,118.694687,临沂市,临沂市卫生健康委员会,http://wsjsw.linyi.gov.cn/info/1063/12956.htm
510,沂南县铜井镇,1580918400,35.612233,118.478163,临沂市,临沂市卫生健康委员会,http://wsjsw.linyi.gov.cn/info/1063/12957.htm
511,郯城县泉源乡,1581004800,34.743564,118.445211,临沂市,临沂市卫生健康委员会,http://wsjsw.linyi.gov.cn/info/1063/12960.htm
512,新泰市羊流镇王家林村,1580659200,36.024170,117.508439,泰安市,泰安发布,https://mp.weixin.qq.com/s/PRDdBkb4gRQbjVetl7Pj0g
513,新泰市幸福里小区对过原山东电缆厂宿舍10号楼,1580659200,35.921710,117.769142,泰安市,泰安发布,https://mp.weixin.qq.com/s/PRDdBkb4gRQbjVetl7Pj0g
514,新泰市青云街道大洼村,1580572800,35.899451,117.788236,泰安市,泰安发布,https://mp.weixin.qq.com/s?__biz=MzAwMTczMzIwMw==&mid=2652713710&idx=1&sn=15aaed88e655b5994a118402ea13ebfe&chksm=813cb5d2b64b3cc473bf579349da2f0ae6360fbc161bd119007348153a9db47a97ca2e82346f&mpshare=1&scene=1&srcid=&sharer_sharetime=1580733704196&sharer_shareid=f6517d7526d7bc3dad5be72a2508f0d4&key=1de96bf14ac837574b8bdfdbfd542e590305a121ab7047d3efc04cf1499699c5ca8b3d8d677f076cf7313f079450c8d87a3225f563b1dac18f7efab30ff44060d9cca7c194657c0e5a0c094fc1fe93b0&ascene=1&uin=MTA5NTk3OTI4MA%3D%3D&devicetype=Windows+10&version=62070141&lang=zh_CN&exportkey=A96y9myPLA38J7W1yEc09Vk%3D&pass_ticket=d1CidichdvbGJ5P7cISFYcMwhEWV3yPUwt68RdOmeOPzImnVUXdoiUtKMjc2nnK%2B
515,高新区北集坡街道安居幸福里小区,1580572800,36.130453,117.126269,泰安市,泰安发布,https://mp.weixin.qq.com/s?__biz=MzAwMTczMzIwMw==&mid=2652713710&idx=1&sn=15aaed88e655b5994a118402ea13ebfe&chksm=813cb5d2b64b3cc473bf579349da2f0ae6360fbc161bd119007348153a9db47a97ca2e82346f&mpshare=1&scene=1&srcid=&sharer_sharetime=1580733704196&sharer_shareid=f6517d7526d7bc3dad5be72a2508f0d4&key=1de96bf14ac837574b8bdfdbfd542e590305a121ab7047d3efc04cf1499699c5ca8b3d8d677f076cf7313f079450c8d87a3225f563b1dac18f7efab30ff44060d9cca7c194657c0e5a0c094fc1fe93b0&ascene=1&uin=MTA5NTk3OTI4MA%3D%3D&devicetype=Windows+10&version=62070141&lang=zh_CN&exportkey=A96y9myPLA38J7W1yEc09Vk%3D&pass_ticket=d1CidichdvbGJ5P7cISFYcMwhEWV3yPUwt68RdOmeOPzImnVUXdoiUtKMjc2nnK%2B
516,高新区北集坡街道龙泉小区,1580832000,36.127609,117.123376,泰安市,泰安发布,http://wjw.taian.gov.cn/art/2020/2/5/art_45779_8772436.html
517,东平县银山镇东茂王村,1580572800,36.081320,116.154706,泰安市,泰安发布,https://mp.weixin.qq.com/s?__biz=MzAwMTczMzIwMw==&mid=2652713710&idx=1&sn=15aaed88e655b5994a118402ea13ebfe&chksm=813cb5d2b64b3cc473bf579349da2f0ae6360fbc161bd119007348153a9db47a97ca2e82346f&mpshare=1&scene=1&srcid=&sharer_sharetime=1580733704196&sharer_shareid=f6517d7526d7bc3dad5be72a2508f0d4&key=1de96bf14ac837574b8bdfdbfd542e590305a121ab7047d3efc04cf1499699c5ca8b3d8d677f076cf7313f079450c8d87a3225f563b1dac18f7efab30ff44060d9cca7c194657c0e5a0c094fc1fe93b0&ascene=1&uin=MTA5NTk3OTI4MA%3D%3D&devicetype=Windows+10&version=62070141&lang=zh_CN&exportkey=A96y9myPLA38J7W1yEc09Vk%3D&pass_ticket=d1CidichdvbGJ5P7cISFYcMwhEWV3yPUwt68RdOmeOPzImnVUXdoiUtKMjc2nnK%2B
518,东平县银山镇昆山村,1580572800,36.010155,116.175101,泰安市,泰安发布,https://mp.weixin.qq.com/s?__biz=MzAwMTczMzIwMw==&mid=2652713710&idx=1&sn=15aaed88e655b5994a118402ea13ebfe&chksm=813cb5d2b64b3cc473bf579349da2f0ae6360fbc161bd119007348153a9db47a97ca2e82346f&mpshare=1&scene=1&srcid=&sharer_sharetime=1580733704196&sharer_shareid=f6517d7526d7bc3dad5be72a2508f0d4&key=1de96bf14ac837574b8bdfdbfd542e590305a121ab7047d3efc04cf1499699c5ca8b3d8d677f076cf7313f079450c8d87a3225f563b1dac18f7efab30ff44060d9cca7c194657c0e5a0c094fc1fe93b0&ascene=1&uin=MTA5NTk3OTI4MA%3D%3D&devicetype=Windows+10&version=62070141&lang=zh_CN&exportkey=A96y9myPLA38J7W1yEc09Vk%3D&pass_ticket=d1CidichdvbGJ5P7cISFYcMwhEWV3yPUwt68RdOmeOPzImnVUXdoiUtKMjc2nnK%2B
519,泰山区上高凤凰小区10号楼,1580745600,36.192107,117.169503,泰安市,泰安发布,http://wjw.taian.gov.cn/art/2020/2/4/art_45779_8771892.html
520,泰山区上高办事处雷诺名郡,1580832000,36.201503,117.175499,泰安市,泰安发布,http://wjw.taian.gov.cn/art/2020/2/5/art_45779_8772436.html
521,泰山区丽景花园小区1期6号楼,1580572800,36.203185,117.152496,泰安市,泰安发布,https://mp.weixin.qq.com/s?__biz=MzAwMTczMzIwMw==&mid=2652713710&idx=1&sn=15aaed88e655b5994a118402ea13ebfe&chksm=813cb5d2b64b3cc473bf579349da2f0ae6360fbc161bd119007348153a9db47a97ca2e82346f&mpshare=1&scene=1&srcid=&sharer_sharetime=1580733704196&sharer_shareid=f6517d7526d7bc3dad5be72a2508f0d4&key=1de96bf14ac837574b8bdfdbfd542e590305a121ab7047d3efc04cf1499699c5ca8b3d8d677f076cf7313f079450c8d87a3225f563b1dac18f7efab30ff44060d9cca7c194657c0e5a0c094fc1fe93b0&ascene=1&uin=MTA5NTk3OTI4MA%3D%3D&devicetype=Windows+10&version=62070141&lang=zh_CN&exportkey=A96y9myPLA38J7W1yEc09Vk%3D&pass_ticket=d1CidichdvbGJ5P7cISFYcMwhEWV3yPUwt68RdOmeOPzImnVUXdoiUtKMjc2nnK%2B
522,泰山区岱庙办事处东湖小区,1580832000,36.194533,117.148247,泰安市,泰安发布,http://wjw.taian.gov.cn/art/2020/2/5/art_45779_8772436.html
523,泰山区岱庙办事处杏林佳苑2号楼,1580832000,36.196362,117.156574,泰安市,泰安发布,http://wjw.taian.gov.cn/art/2020/2/5/art_45779_8772436.html
524,泰山区岱庙街道温泉路国土资源局宿舍1号楼,1580572800,36.199836,117.157555,泰安市,泰安发布,https://mp.weixin.qq.com/s?__biz=MzAwMTczMzIwMw==&mid=2652713710&idx=1&sn=15aaed88e655b5994a118402ea13ebfe&chksm=813cb5d2b64b3cc473bf579349da2f0ae6360fbc161bd119007348153a9db47a97ca2e82346f&mpshare=1&scene=1&srcid=&sharer_sharetime=1580733704196&sharer_shareid=f6517d7526d7bc3dad5be72a2508f0d4&key=1de96bf14ac837574b8bdfdbfd542e590305a121ab7047d3efc04cf1499699c5ca8b3d8d677f076cf7313f079450c8d87a3225f563b1dac18f7efab30ff44060d9cca7c194657c0e5a0c094fc1fe93b0&ascene=1&uin=MTA5NTk3OTI4MA%3D%3D&devicetype=Windows+10&version=62070141&lang=zh_CN&exportkey=A96y9myPLA38J7W1yEc09Vk%3D&pass_ticket=d1CidichdvbGJ5P7cISFYcMwhEWV3yPUwt68RdOmeOPzImnVUXdoiUtKMjc2nnK%2B
525,泰山区擂鼓石花园10号楼,1580832000,36.207161,117.116901,泰安市,泰安发布,https://mp.weixin.qq.com/s/6lQ4zzIOFGiM266rvINNVw
526,泰山区泰前办事处军星花园,1580832000,36.213238,117.132913,泰安市,泰安发布,http://wjw.taian.gov.cn/art/2020/2/5/art_45779_8772436.html
527,泰山区泰前办事处泰前西村,1580832000,36.212977,117.129062,泰安市,泰安发布,http://wjw.taian.gov.cn/art/2020/2/5/art_45779_8772436.html
528,泰山区泮河大街老儿童医院宿舍,1580918400,36.178628,117.116482,泰安市,泰安发布,https://mp.weixin.qq.com/s/JVPpPfHVEfud4o8nYM0dIg
529,泰山区财源街道粮食局宿舍1号楼,1581177600,36.190955,117.084873,泰安市,泰安发布,https://mp.weixin.qq.com/s/ILvOi29rK56N_LI5L5JLUg
530,泰山区邱家店镇府前花园2号楼,1581177600,36.166586,117.251154,泰安市,泰安发布,https://mp.weixin.qq.com/s/ILvOi29rK56N_LI5L5JLUg
531,肥城市大封矿宿舍18号楼,1580918400,36.232004,116.759406,泰安市,泰安发布,https://mp.weixin.qq.com/s/JVPpPfHVEfud4o8nYM0dIg
532,宁阳县文庙街道锦绣城1号楼,1580918400,35.774624,116.824723,泰安市,泰安发布,https://mp.weixin.qq.com/s/JVPpPfHVEfud4o8nYM0dIg
533,岱岳区徂徕镇南黄崖村,1581177600,36.107039,117.349684,泰安市,泰安发布,https://mp.weixin.qq.com/s/ILvOi29rK56N_LI5L5JLUg
534,历下区趵突泉小区一区,1581091200,36.664846,117.025180,济南市,济南发布,https://mp.weixin.qq.com/s/-uFtHPla2EiTOqixTOK4aA
535,历下区姚家街道窑头小区,1581091200,36.659840,117.086282,济南市,济南发布,https://mp.weixin.qq.com/s/-uFtHPla2EiTOqixTOK4aA
536,历下区利农庄23号,1581091200,36.681253,117.055636,济南市,济南发布,https://mp.weixin.qq.com/s/-uFtHPla2EiTOqixTOK4aA
537,市中区中海国际社区A2区,1581091200,36.615937,116.987817,济南市,济南发布,https://mp.weixin.qq.com/s/-uFtHPla2EiTOqixTOK4aA
538,市中区中海国际社区C2区,1581091200,36.615893,116.986260,济南市,济南发布,https://mp.weixin.qq.com/s/-uFtHPla2EiTOqixTOK4aA
539,市中区二七新村南路20号,1581091200,36.636169,116.994380,济南市,济南发布,https://mp.weixin.qq.com/s/-uFtHPla2EiTOqixTOK4aA
540,市中区十六里河街道万寿路,1581091200,36.610591,117.004602,济南市,济南发布,https://mp.weixin.qq.com/s/-uFtHPla2EiTOqixTOK4aA
541,槐荫区美里新居小区三区,1581091200,36.701385,116.951039,济南市,济南发布,https://mp.weixin.qq.com/s/-uFtHPla2EiTOqixTOK4aA
542,槐荫区锦绣兰庭小区12号楼,1581091200,36.684893,116.918767,济南市,济南发布,https://mp.weixin.qq.com/s/-uFtHPla2EiTOqixTOK4aA
543,槐荫区幸福街泉城花园,1581091200,36.684187,116.949533,济南市,济南发布,https://mp.weixin.qq.com/s/-uFtHPla2EiTOqixTOK4aA
544,槐荫区经十路25366号舜承苑西区,1581091200,36.654385,116.955324,济南市,济南发布,https://mp.weixin.qq.com/s/-uFtHPla2EiTOqixTOK4aA
545,高新区黄金时代小区,1581091200,36.675858,117.137067,济南市,济南发布,https://mp.weixin.qq.com/s/-uFtHPla2EiTOqixTOK4aA
546,长清区崮云湖乐天小区,1581091200,36.561013,116.787519,济南市,济南发布,https://mp.weixin.qq.com/s/-uFtHPla2EiTOqixTOK4aA
547,历城区锦绣澜湾小区,1581091200,36.711028,117.065626,济南市,济南发布,https://mp.weixin.qq.com/s/-uFtHPla2EiTOqixTOK4aA
548,天桥区泺口街道河畔景苑小区,1581091200,36.723683,117.018057,济南市,济南发布,https://mp.weixin.qq.com/s/-uFtHPla2EiTOqixTOK4aA
549,平阴县榆山街道龙山小区,1581091200,36.280423,116.463314,济南市,济南发布,https://mp.weixin.qq.com/s/-uFtHPla2EiTOqixTOK4aA
550,章丘区刁镇街道办季周村,1581091200,36.940355,117.424713,济南市,济南发布,https://mp.weixin.qq.com/s/-uFtHPla2EiTOqixTOK4aA
551,任城区如意家园,1580659200,35.425049,116.634999,济宁市,济宁发布,https://mp.weixin.qq.com/s/kuS9OY9kiAZHdgWUcDCaAg
552,任城区如意嘉园,1580745600,35.423841,116.638118,济宁市,济宁发布,https://mp.weixin.qq.com/s/aKDlFgXIufx8YOrj2I5jXA
553,任城区建设新村,1580918400,35.195545,116.721453,济宁市,济宁发布,https://mp.weixin.qq.com/s/DzZk1JJsxSxLwiouPo3prw
554,任城区太白国际,1581004800,35.408652,116.582306,济宁市,济宁发布,https://mp.weixin.qq.com/s/A7dUZlLN0XlkATUBSUo5gw
555,兖州区奎星苑,1580659200,35.548130,116.840315,济宁市,济宁发布,https://mp.weixin.qq.com/s/kuS9OY9kiAZHdgWUcDCaAg
556,兖州区奎星苑小区,1580832000,35.548130,116.840315,济宁市,济宁发布,https://mp.weixin.qq.com/s/LYD6VD1083YU5LnLnkgQug
557,兖州区颜店镇李宫一村,1580918400,35.610232,116.633002,济宁市,济宁发布,https://mp.weixin.qq.com/s/CJQNS8xiTcY7Wbu_Ciz3_A
558,高新区洸河街道市检察院宿舍,1580659200,35.428112,116.618749,济宁市,济宁发布,https://mp.weixin.qq.com/s/kuS9OY9kiAZHdgWUcDCaAg
559,高新区海亮公馆,1580659200,35.429396,116.657721,济宁市,济宁发布,https://mp.weixin.qq.com/s/kuS9OY9kiAZHdgWUcDCaAg
560,嘉祥县仲山镇仲山西村,1580745600,35.342812,116.265155,济宁市,济宁发布,https://mp.weixin.qq.com/s/aKDlFgXIufx8YOrj2I5jXA
561,曲阜市鲁城街道卫生局家属院,1580745600,35.586683,117.000378,济宁市,济宁发布,https://mp.weixin.qq.com/s/aKDlFgXIufx8YOrj2I5jXA
562,曲阜市小雪街道武家村,1580832000,35.506974,117.007896,济宁市,济宁发布,https://mp.weixin.qq.com/s/KaGHawYYfug57OBHMXaGgg
563,曲阜市书院街道旧县三街,1580918400,35.607464,117.042043,济宁市,济宁发布,https://mp.weixin.qq.com/s/CJQNS8xiTcY7Wbu_Ciz3_A
564,曲阜市鲁城街道南关体育局家属院,1581177600,35.586683,117.000378,济宁市,济宁发布,https://mp.weixin.qq.com/s/cUs5mOeW4jnut0Zf-rqN9w
565,汶上县信合小区,1580832000,35.723865,116.499039,济宁市,济宁发布,https://mp.weixin.qq.com/s/KaGHawYYfug57OBHMXaGgg
566,金乡县化雨镇吴海村,1580918400,34.974270,116.411607,济宁市,济宁发布,https://mp.weixin.qq.com/s/CJQNS8xiTcY7Wbu_Ciz3_A
567,博山区城东街道恒泰怡景,1580313600,36.503845,117.878628,淄博市,淄博发布,https://mp.weixin.qq.com/s/RAS9wGehPm0S4XJn3tAqhQ
568,博山区域城镇颜山国际,1580572800,36.500817,117.844524,淄博市,淄博发布,https://mp.weixin.qq.com/s/7liyXfBFp-tApqCh6G1Mpg
569,博山区城东街道办事处青龙山鑫龙东苑,1581004800,36.511993,117.880389,淄博市,淄博发布,https://mp.weixin.qq.com/s/vDLmEQB_n8Wvf8_PZII9Kg
570,周村区青年路办事处区交通局宿舍,1580400000,36.813838,117.873491,淄博市,淄博发布,https://mp.weixin.qq.com/s/B4EHtWZESzMOxvWhqckMew
571,张店区马尚镇龙凤苑小区,1580572800,36.837626,118.015120,淄博市,淄博发布,https://mp.weixin.qq.com/s/7liyXfBFp-tApqCh6G1Mpg
572,桓台县新城镇邢家村,1580745600,36.985080,117.941204,淄博市,淄博发布,https://mp.weixin.qq.com/s/tK6kXGA90OYID5Yuw5-z9w
573,高新区石桥街道新空间花园,1580745600,36.856777,118.071031,淄博市,淄博发布,https://mp.weixin.qq.com/s/tK6kXGA90OYID5Yuw5-z9w
574,高新区小寨村四宝山街道,1580745600,36.862337,118.155273,淄博市,淄博发布,https://mp.weixin.qq.com/s/tK6kXGA90OYID5Yuw5-z9w
575,淄川区昆仑镇电瓷厂宿舍,1580745600,36.594539,117.925191,淄博市,淄博发布,https://mp.weixin.qq.com/s/tK6kXGA90OYID5Yuw5-z9w
576,山亭区中水峪村,1580659200,35.137044,117.439113,枣庄市,枣庄市卫生健康委员会,http://wsjkw.zaozhuang.gov.cn/gzdt/xwtt/202002/t20200203_611816.html
577,山亭区青屏路千水星家具店,1581091200,35.114854,117.457095,枣庄市,枣庄市卫生健康委员会,http://wsjkw.zaozhuang.gov.cn/ztzl/glyyls/202002/t20200208_612700.html
578,峄城区濠江花园,1580486400,34.782041,117.585216,枣庄市,枣庄市卫生健康委员会,https://mp.weixin.qq.com/s/D09jryPkBs3p7fG02EYAkQ
579,峄城区前湾村坛山街道,1581004800,34.788901,117.591851,枣庄市,枣庄市卫生健康委员会,https://mp.weixin.qq.com/s/cwF86pFpKpzNl9oNP3Y9bg
580,滕州市鲍沟镇薛中村,1580313600,34.984210,117.158214,枣庄市,枣庄市卫生健康委员会,https://mp.weixin.qq.com/s/JGAgXZZIQ6yQhFq9EdGf6A
581,滕州市大坞镇大坞村,1580832000,35.123329,116.995411,枣庄市,枣庄市卫生健康委员会,http://wsjkw.zaozhuang.gov.cn/gzdt/xwtt/202002/t20200205_612184.html
582,滕州市东沙河镇党村,1580918400,35.089096,117.233202,枣庄市,枣庄市卫生健康委员会,http://wsjkw.zaozhuang.gov.cn/gzdt/xwtt/202002/t20200207_612480.html
583,薛城区临山路朝阳小区,1580313600,34.797755,117.264372,枣庄市,枣庄市卫生健康委员会,https://mp.weixin.qq.com/s/JGAgXZZIQ6yQhFq9EdGf6A
584,薛城区临城街道阳光小区,1581004800,34.798730,117.310718,枣庄市,枣庄市卫生健康委员会,https://mp.weixin.qq.com/s/vdY-Tt8Vs4-tUzINcg3RcA
585,台儿庄区涧头集镇谢庄村,1581177600,34.525823,117.545520,枣庄市,枣庄市卫生健康委员会,http://wsjkw.zaozhuang.gov.cn/gzdt/xwtt/202002/t20200209_612718.html
586,崂山区东姜外贸度假村2-西-207,1580486400,36.113527,120.541635,青岛市,青岛发布,https://view.inews.qq.com/k/20200201A07X6U00
587,平度市经济开发区前八里庄村,1580745600,36.758915,119.996824,青岛市,青岛发布,https://mp.weixin.qq.com/s/AHZqZl7Zp643NSjlCWxGbA
588,山海天旅游度假区卧龙山街道,1580659200,35.456386,119.587906,日照市,日照发布,https://mp.weixin.qq.com/s/k4uNe95K62YWwUEYIT0qtQ
589,高新区银海熙岸小区,1581177600,37.453444,121.510234,烟台市,烟台市卫健委,https://mp.weixin.qq.com/s/3bqiTHzJTXav0FK3LI4-CA
590,城区钟家庄迎宾街建行小区,1580572800,35.484853,112.863072,晋城市,晋城通,https://weibo.com/2824120872/IsbvR4pth
591,泽州县北义城镇北义城村红星三巷,1580572800,35.644526,112.958943,晋城市,晋城通,https://weibo.com/2824120872/IsgrhlQWg
592,泽州县北石店镇锦泰嘉园小区,1580659200,35.556885,112.909102,晋城市,晋城通,https://weibo.com/2824120872/IsrqeqjSy
593,阳城县水村商业园B区,1580659200,35.496115,112.413120,晋城市,晋城通,https://weibo.com/2824120872/IsrqeqjSy
594,陵川县崇文镇城南社区王家巷,1580572800,35.777234,113.284381,晋城市,晋城通,https://weibo.com/2824120872/IsbvR4pth
595,沁水县郑庄镇中乡村,1580659200,35.683448,112.462654,晋城市,晋城通,https://mp.weixin.qq.com/s/ZAwe2UqZE8e_MfvtmGrWmA
596,小店区华泰御景湾,1581004800,37.804558,112.550763,太原市,热爱太原,https://mp.weixin.qq.com/s/fiPO4ouAgfAo1C66a0l9Jw
597,小店区正阳街汇泰丽城,1581004800,37.729704,112.583838,太原市,热爱太原,https://mp.weixin.qq.com/s/fiPO4ouAgfAo1C66a0l9Jw
598,小店区营盘街道体育北街6号山西省政法管理干部学院宿舍,1581004800,37.843082,112.583939,太原市,热爱太原,https://mp.weixin.qq.com/s/fiPO4ouAgfAo1C66a0l9Jw
599,尖草坪区汇丰街道兴华街北小区,1581004800,37.893186,112.527385,太原市,热爱太原,https://mp.weixin.qq.com/s/fiPO4ouAgfAo1C66a0l9Jw
600,晋源区焦化小区,1581004800,37.767303,112.490346,太原市,热爱太原,https://mp.weixin.qq.com/s/fiPO4ouAgfAo1C66a0l9Jw
601,杏花岭区巨轮街胜利桥东路省统计局宿舍,1581004800,37.883963,112.569911,太原市,热爱太原,https://mp.weixin.qq.com/s/fiPO4ouAgfAo1C66a0l9Jw
602,杏花岭区胜利东街晋安3号院,1581091200,37.901216,112.584678,太原市,热爱太原,https://mp.weixin.qq.com/s/5bhbrWWRu2NNuTv2eiPUVg
603,厚街镇万达广场公寓,1580572800,22.950331,113.682060,东莞市,东莞阳光网,https://mp.weixin.qq.com/s/OZ08Q59umuS80yy6lUNFOQ
604,厚街镇世纪绿洲,1580572800,22.869811,113.667958,东莞市,东莞阳光网,https://mp.weixin.qq.com/s/OZ08Q59umuS80yy6lUNFOQ
605,厚街镇厚街镇珊美社区兴隆路汉邦66,1581177600,22.941448,113.673427,东莞市,东莞阳光网,https://mp.weixin.qq.com/s/eUVeumG6BRPs3KAv-nlq6g
606,厚街镇厚街镇珊美社区河田大道,1581177600,22.936632,113.667750,东莞市,东莞阳光网,https://mp.weixin.qq.com/s/eUVeumG6BRPs3KAv-nlq6g
607,大岭山镇龙光君御华府,1580572800,22.914202,113.858334,东莞市,东莞阳光网,https://mp.weixin.qq.com/s/OZ08Q59umuS80yy6lUNFOQ
608,大朗镇大角岭工业区,1580572800,22.929146,113.926865,东莞市,东莞阳光网,https://mp.weixin.qq.com/s/OZ08Q59umuS80yy6lUNFOQ
609,寮步镇牛杨社区大香园,1580572800,22.958995,113.887722,东莞市,东莞阳光网,https://mp.weixin.qq.com/s/OZ08Q59umuS80yy6lUNFOQ
610,寮步镇石龙坑龙泉二区,1580745600,22.990363,113.890415,东莞市,东莞阳光网,https://mp.weixin.qq.com/s/x0t1mU9tRzKbazWS5ExLHA
611,常平镇木伦村中央公园,1580572800,22.988360,114.005903,东莞市,东莞阳光网,https://mp.weixin.qq.com/s/OZ08Q59umuS80yy6lUNFOQ
612,常平镇金凯水都别墅,1580572800,22.986521,114.024434,东莞市,东莞阳光网,https://mp.weixin.qq.com/s/OZ08Q59umuS80yy6lUNFOQ
613,松山湖工业西二路,1580572800,22.900557,113.887889,东莞市,东莞阳光网,https://mp.weixin.qq.com/s/OZ08Q59umuS80yy6lUNFOQ
614,松山湖工业北三路保利红珊瑚,1580832000,22.969228,113.908044,东莞市,东莞阳光网,https://mp.weixin.qq.com/s/Ek5Irsxsv-V6eMu900I0Vw
615,长安镇乌沙社区金兴大厦,1580572800,22.791512,113.814411,东莞市,东莞阳光网,https://mp.weixin.qq.com/s/OZ08Q59umuS80yy6lUNFOQ
616,长安镇新安社区园山仔路,1580572800,22.825021,113.798868,东莞市,东莞阳光网,https://mp.weixin.qq.com/s/OZ08Q59umuS80yy6lUNFOQ
617,长安镇新安社区增田村,1580572800,22.825021,113.798868,东莞市,东莞阳光网,https://mp.weixin.qq.com/s/OZ08Q59umuS80yy6lUNFOQ
618,长安镇沙头社区西大路,1580745600,22.785779,113.772179,东莞市,东莞阳光网,https://mp.weixin.qq.com/s/x0t1mU9tRzKbazWS5ExLHA
619,高埗镇上江城村众兴街,1580572800,23.073374,113.749115,东莞市,东莞阳光网,https://mp.weixin.qq.com/s/OZ08Q59umuS80yy6lUNFOQ
620,黄江镇梅塘社区中信红树山,1580659200,22.861516,113.989349,东莞市,东莞阳光网,https://mp.weixin.qq.com/s/CidXV3GxtXJDlhTHw55f_Q
621,黄江镇田美社区板湖村富康花园,1580659200,22.922371,114.021462,东莞市,东莞阳光网,https://mp.weixin.qq.com/s/CidXV3GxtXJDlhTHw55f_Q
622,黄江镇田美社区玉堂围村,1580572800,22.924596,114.016510,东莞市,东莞阳光网,https://mp.weixin.qq.com/s/OZ08Q59umuS80yy6lUNFOQ
623,黄江镇宝山社区,1580572800,22.914802,114.021249,东莞市,东莞阳光网,https://mp.weixin.qq.com/s/OZ08Q59umuS80yy6lUNFOQ
624,虎门镇博涌社区博美村,1580572800,22.836956,113.686439,东莞市,东莞阳光网,https://mp.weixin.qq.com/s/OZ08Q59umuS80yy6lUNFOQ
625,虎门镇博涌社区柏景豪庭,1581004800,22.825825,113.690500,东莞市,东莞阳光网,https://mp.weixin.qq.com/s/kuLsSYmDTzCcQpgaiyRfQA
626,虎门镇虎门镇则徐社区风华豪庭,1581177600,22.817231,113.679105,东莞市,东莞阳光网,https://mp.weixin.qq.com/s/eUVeumG6BRPs3KAv-nlq6g
627,东城区东泰社区东泰花园,1580659200,23.006936,113.764005,东莞市,东莞阳光网,https://mp.weixin.qq.com/s/CidXV3GxtXJDlhTHw55f_Q
628,东城区东城区温塘社区冚下新村,1581177600,23.044519,113.840565,东莞市,东莞阳光网,https://mp.weixin.qq.com/s/eUVeumG6BRPs3KAv-nlq6g
629,凤岗镇凤岗社区金凤路,1580745600,22.747382,114.136796,东莞市,东莞阳光网,https://mp.weixin.qq.com/s/x0t1mU9tRzKbazWS5ExLHA
630,凤岗镇官井头村大运城邦,1580745600,22.725615,114.211294,东莞市,东莞阳光网,https://mp.weixin.qq.com/s/x0t1mU9tRzKbazWS5ExLHA
631,凤岗镇竹塘村,1580745600,22.761802,114.149926,东莞市,东莞阳光网,https://mp.weixin.qq.com/s/x0t1mU9tRzKbazWS5ExLHA
632,凤岗镇黄洞村田心村,1580832000,22.753216,114.171458,东莞市,东莞阳光网,https://mp.weixin.qq.com/s/Ek5Irsxsv-V6eMu900I0Vw
633,塘厦镇花园新街时代城,1580659200,22.816220,114.108870,东莞市,东莞阳光网,https://mp.weixin.qq.com/s/CidXV3GxtXJDlhTHw55f_Q
634,塘厦镇莲湖社区科莲路,1581177600,22.832276,114.110842,东莞市,东莞阳光网,https://mp.weixin.qq.com/s/eUVeumG6BRPs3KAv-nlq6g
635,石排镇太和社区碧水云天,1580832000,23.090125,113.945212,东莞市,东莞阳光网,https://mp.weixin.qq.com/s/Ek5Irsxsv-V6eMu900I0Vw
636,道滘镇五福里小区,1580832000,23.012890,113.688206,东莞市,东莞阳光网,https://mp.weixin.qq.com/s/Ek5Irsxsv-V6eMu900I0Vw
637,望牛墩镇朱平沙村,1581004800,23.039591,113.620561,东莞市,东莞阳光网,https://mp.weixin.qq.com/s/kuLsSYmDTzCcQpgaiyRfQA
638,东坑镇东坑镇坑美村碧桂园,1581177600,22.995625,113.970220,东莞市,东莞阳光网,https://mp.weixin.qq.com/s/eUVeumG6BRPs3KAv-nlq6g
639,南城区袁屋边社区,1580572800,22.995316,113.723301,东莞市,东莞阳光网,https://mp.weixin.qq.com/s/OZ08Q59umuS80yy6lUNFOQ
640,石碣镇石碣镇涌口村百悦商贸城,1581177600,23.114549,113.821248,东莞市,东莞阳光网,https://mp.weixin.qq.com/s/eUVeumG6BRPs3KAv-nlq6g
641,莞城区创业社区塞纳河畔,1580745600,23.042991,113.750682,东莞市,东莞阳光网,https://mp.weixin.qq.com/s/x0t1mU9tRzKbazWS5ExLHA
642,东区星光礼寓,1582041600,22.506114,113.380692,中山市,中山发布,http://app.zsbtv.com.cn/create/WuHan/dist/index.html?from=singlemessage&isappinstalled=0#/
643,东升镇可逸豪苑,1582041600,22.584606,113.325716,中山市,中山发布,http://app.zsbtv.com.cn/create/WuHan/dist/index.html?from=singlemessage&isappinstalled=0#/
644,东升镇丽景名筑,1582041600,22.624884,113.276524,中山市,中山发布,http://app.zsbtv.com.cn/create/WuHan/dist/index.html?from=singlemessage&isappinstalled=0#/
645,坦洲镇汇翠山庄,1582041600,22.270897,113.490783,中山市,中山发布,http://app.zsbtv.com.cn/create/WuHan/dist/index.html?from=singlemessage&isappinstalled=0#/
646,坦洲镇海伦堡,1582041600,22.272175,113.503707,中山市,中山发布,http://app.zsbtv.com.cn/create/WuHan/dist/index.html?from=singlemessage&isappinstalled=0#/
647,坦洲镇锦绣阳光花园,1582041600,22.284312,113.472071,中山市,中山发布,http://app.zsbtv.com.cn/create/WuHan/dist/index.html?from=singlemessage&isappinstalled=0#/
648,石岐区富豪山庄,1582041600,22.532547,113.401969,中山市,中山发布,http://app.zsbtv.com.cn/create/WuHan/dist/index.html?from=singlemessage&isappinstalled=0#/
649,石岐区长虹蓝湾半岛,1582041600,22.561777,113.397997,中山市,中山发布,http://app.zsbtv.com.cn/create/WuHan/dist/index.html?from=singlemessage&isappinstalled=0#/
650,石岐区利和豪庭,1582041600,22.508878,113.370083,中山市,中山发布,http://app.zsbtv.com.cn/create/WuHan/dist/index.html?from=singlemessage&isappinstalled=0#/
651,石岐区民安街,1580486400,22.522262,113.399023,中山市,中山发布,http://www.bozhou.gov.cn/News/show/372202.html
652,黄圃镇半山豪苑,1582041600,22.721946,113.353353,中山市,中山发布,http://app.zsbtv.com.cn/create/WuHan/dist/index.html?from=singlemessage&isappinstalled=0#/
653,黄圃镇御品泰景,1582041600,22.728331,113.338701,中山市,中山发布,http://app.zsbtv.com.cn/create/WuHan/dist/index.html?from=singlemessage&isappinstalled=0#/
654,黄圃镇大岑工业区,1582041600,22.753732,113.343748,中山市,中山发布,http://app.zsbtv.com.cn/create/WuHan/dist/index.html?from=singlemessage&isappinstalled=0#/
655,黄圃镇奥城花园,1582041600,22.708488,113.358457,中山市,中山发布,http://app.zsbtv.com.cn/create/WuHan/dist/index.html?from=singlemessage&isappinstalled=0#/
656,黄圃镇蓝天金地花园,1582041600,22.727301,113.342604,中山市,中山发布,http://app.zsbtv.com.cn/create/WuHan/dist/index.html?from=singlemessage&isappinstalled=0#/
657,黄圃镇大岑村雪莱路外工村,1582041600,22.755812,113.349286,中山市,中山发布,http://app.zsbtv.com.cn/create/WuHan/dist/index.html?from=singlemessage&isappinstalled=0#/
658,三角镇乌沙村,1580745600,22.684099,113.399745,中山市,中山发布,https://mp.weixin.qq.com/s/nkhU5XF9-aAmbF-14OPOJQ
659,三角镇乌沙村三角镇乌沙村,1580659200,22.684099,113.399745,中山市,中山发布,https://mp.weixin.qq.com/s/hrmK9c9kxWvmb0KBQW0ZLw
660,开发区联富社区,1580745600,22.543181,113.435464,中山市,中山发布,https://mp.weixin.qq.com/s/nkhU5XF9-aAmbF-14OPOJQ
661,板芙镇雅芙花园,1580659200,22.419529,113.333674,中山市,中山发布,https://mp.weixin.qq.com/s/hrmK9c9kxWvmb0KBQW0ZLw
662,火炬开发区伯爵山,1582041600,22.553019,113.463640,中山市,中山发布,http://app.zsbtv.com.cn/create/WuHan/dist/index.html?from=singlemessage&isappinstalled=0#/
663,火炬开发区健康花城,1582041600,22.551541,113.486182,中山市,中山发布,http://app.zsbtv.com.cn/create/WuHan/dist/index.html?from=singlemessage&isappinstalled=0#/
664,火炬开发区凯茵新城,1582041600,22.514118,113.468122,中山市,中山发布,http://app.zsbtv.com.cn/create/WuHan/dist/index.html?from=singlemessage&isappinstalled=0#/
665,火炬开发区联富社区,1582041600,22.543181,113.435464,中山市,中山发布,http://app.zsbtv.com.cn/create/WuHan/dist/index.html?from=singlemessage&isappinstalled=0#/
666,火炬开发区逸骏华庭,1582041600,22.568194,113.494995,中山市,中山发布,http://app.zsbtv.com.cn/create/WuHan/dist/index.html?from=singlemessage&isappinstalled=0#/
667,火炬开发区濠泗下街,1580918400,22.553163,113.492361,中山市,中山发布,https://mp.weixin.qq.com/s/MwJC0WLCmw-xVWYkTa_RcA
668,民众镇多宝村,1581004800,22.627524,113.500093,中山市,中山发布,https://mp.weixin.qq.com/s/d3ON0qecuZkcysq9iBHIag
669,三乡镇观景大道亚秀街,1582041600,22.363793,113.447978,中山市,中山发布,http://app.zsbtv.com.cn/create/WuHan/dist/index.html?from=singlemessage&isappinstalled=0#/
670,三乡镇金涌大道雅居乐万象郡,1580659200,22.340072,113.466381,中山市,中山发布,http://www.bozhou.gov.cn/News/show/372202.html
671,三乡镇鹤泉山庄,1580918400,22.320960,113.483184,中山市,中山发布,https://mp.weixin.qq.com/s/MwJC0WLCmw-xVWYkTa_RcA
672,沙溪镇水岸街水岸花都,1580918400,22.534751,113.326124,中山市,中山发布,https://mp.weixin.qq.com/s/MwJC0WLCmw-xVWYkTa_RcA
673,东凤镇东御世家,1580918400,22.703657,113.263571,中山市,中山发布,https://mp.weixin.qq.com/s/MwJC0WLCmw-xVWYkTa_RcA
674,东凤镇佛澳阳光花园,1580400000,22.693517,113.271938,中山市,中山发布,https://mp.weixin.qq.com/s/Uy1EArC6gmMvEI14mRisUQ
675,东凤镇西罟村,1581004800,22.648140,113.317130,中山市,中山发布,https://mp.weixin.qq.com/s/d3ON0qecuZkcysq9iBHIag
676,横栏镇阳光花园,1580659200,22.581660,113.235602,中山市,中山发布,https://mp.weixin.qq.com/s/hrmK9c9kxWvmb0KBQW0ZLw
677,西区广浩华庭,1580659200,22.567500,113.346994,中山市,中山发布,https://mp.weixin.qq.com/s/hrmK9c9kxWvmb0KBQW0ZLw
678,阜沙镇阜港西路赢天阁,1580659200,22.675078,113.353866,中山市,中山发布,https://mp.weixin.qq.com/s/hrmK9c9kxWvmb0KBQW0ZLw
679,三水区云东海街道林海尚都,1580400000,23.188876,112.889805,佛山市,佛山发布,https://mp.weixin.qq.com/s/R2C7yMToEwA775r7ITDsjg
680,三水区云东海街道雅湖半岛,1580400000,23.176653,112.915121,佛山市,佛山发布,https://mp.weixin.qq.com/s/R2C7yMToEwA775r7ITDsjg
681,三水区西南街道博雅滨江,1580400000,23.166472,112.882440,佛山市,佛山发布,https://mp.weixin.qq.com/s/R2C7yMToEwA775r7ITDsjg
682,三水区西南街道恒达花园,1580745600,23.181464,112.899980,佛山市,佛山发布,https://mp.weixin.qq.com/s/bxW6VHstgxQrWlQ9Q3swpw
683,三水区大塘镇开元路8号山龙纺织染厂宿舍,1581091200,23.455445,112.950579,佛山市,佛山发布,https://mp.weixin.qq.com/s/4-mv1FvXQTyf4TUV4S7R4Q
684,南海区大沥镇盐步隔海市场,1580400000,23.104269,113.176448,佛山市,佛山发布,https://mp.weixin.qq.com/s/R2C7yMToEwA775r7ITDsjg
685,南海区大沥镇维京酒店,1580400000,23.118717,113.201122,佛山市,佛山发布,https://mp.weixin.qq.com/s/R2C7yMToEwA775r7ITDsjg
686,南海区大沥镇黄岐万科四季花城,1580400000,23.158604,113.190423,佛山市,佛山发布,https://mp.weixin.qq.com/s/R2C7yMToEwA775r7ITDsjg
687,南海区桂城街道中海千灯湖1号,1580400000,23.070081,113.149731,佛山市,佛山发布,https://mp.weixin.qq.com/s/R2C7yMToEwA775r7ITDsjg
688,南海区桂城街道保利叶公馆,1580400000,23.052083,113.162474,佛山市,佛山发布,https://mp.weixin.qq.com/s/R2C7yMToEwA775r7ITDsjg
689,南海区桂城街道夏南二大街,1580400000,23.062625,113.186328,佛山市,佛山发布,https://mp.weixin.qq.com/s/R2C7yMToEwA775r7ITDsjg
690,南海区桂城街道怡翠玫瑰园,1580400000,23.016387,113.151413,佛山市,佛山发布,https://mp.weixin.qq.com/s/R2C7yMToEwA775r7ITDsjg
691,南海区桂城街道景裕豪园,1580400000,23.071240,113.143845,佛山市,佛山发布,https://mp.weixin.qq.com/s/R2C7yMToEwA775r7ITDsjg
692,南海区狮山镇罗村力迅城筑,1580400000,23.079422,113.057128,佛山市,佛山发布,https://mp.weixin.qq.com/s/R2C7yMToEwA775r7ITDsjg
693,南海区西樵镇三胜颐景园,1580400000,22.973995,112.984691,佛山市,佛山发布,https://mp.weixin.qq.com/s/R2C7yMToEwA775r7ITDsjg
694,南海区西樵镇西岸社区碧桂园,1580400000,22.877914,112.848149,佛山市,佛山发布,https://mp.weixin.qq.com/s/R2C7yMToEwA775r7ITDsjg
695,南海区里水镇维也纳酒店,1580400000,23.230871,113.089884,佛山市,佛山发布,https://mp.weixin.qq.com/s/R2C7yMToEwA775r7ITDsjg
696,南海区里水镇金沙洲恒大御景半岛,1580400000,23.182489,113.216673,佛山市,佛山发布,https://mp.weixin.qq.com/s/R2C7yMToEwA775r7ITDsjg
697,南海区怡翠馨园,1580745600,23.033919,113.176717,佛山市,佛山发布,https://mp.weixin.qq.com/s/9rlTFVmqpxAla8wNj-jn8w
698,南海区九江沙头城区裕和公寓,1580745600,23.035028,113.149226,佛山市,佛山发布,https://mp.weixin.qq.com/s/bxW6VHstgxQrWlQ9Q3swpw
699,南海区桂城丽雅苑,1580745600,23.057176,113.144164,佛山市,佛山发布,https://mp.weixin.qq.com/s/bxW6VHstgxQrWlQ9Q3swpw
700,南海区里水镇沙涌环村南路十巷,1580918400,23.147813,113.169547,佛山市,佛山发布,https://mp.weixin.qq.com/s/mooGP8w-Zz3iBgGfqXyFZg
701,南海区狮山镇兴贤村委会上北村,1581091200,23.066001,113.097712,佛山市,佛山发布,https://mp.weixin.qq.com/s/4-mv1FvXQTyf4TUV4S7R4Q
702,南海区里水镇恒大御景半岛,1581091200,23.182489,113.216673,佛山市,佛山发布,https://mp.weixin.qq.com/s/DJ2wqPqYHw-jyUCs82g3rg
703,禅城区南庄镇万科城,1580400000,22.976540,113.005699,佛山市,佛山发布,https://mp.weixin.qq.com/s/R2C7yMToEwA775r7ITDsjg
704,禅城区张槎街道保利香槟花园,1580400000,23.038766,113.088764,佛山市,佛山发布,https://mp.weixin.qq.com/s/R2C7yMToEwA775r7ITDsjg
705,禅城区石湾镇街道依云上城,1580400000,22.998449,113.157367,佛山市,佛山发布,https://mp.weixin.qq.com/s/R2C7yMToEwA775r7ITDsjg
706,禅城区石湾镇街道碧桂园城市花园,1580400000,22.987728,113.130657,佛山市,佛山发布,https://mp.weixin.qq.com/s/R2C7yMToEwA775r7ITDsjg
707,禅城区祖庙街道同华西二路,1580659200,23.019923,113.116769,佛山市,佛山发布,https://mp.weixin.qq.com/s/eHEfmnmbRv8dNwSu4U-Fng
708,禅城区祖庙街道旭辉公元,1580400000,23.054059,113.116797,佛山市,佛山发布,https://mp.weixin.qq.com/s/R2C7yMToEwA775r7ITDsjg
709,禅城区石湾镇街道怡景丽苑,1580918400,22.992679,113.144048,佛山市,佛山发布,https://mp.weixin.qq.com/s/mooGP8w-Zz3iBgGfqXyFZg
710,禅城区魁奇二路139号依云上城,1581091200,22.998940,113.157377,佛山市,佛山发布,https://mp.weixin.qq.com/s/4-mv1FvXQTyf4TUV4S7R4Q
711,顺德区乐从镇保利拉菲,1580400000,22.955789,113.087589,佛山市,佛山发布,https://mp.weixin.qq.com/s/R2C7yMToEwA775r7ITDsjg
712,顺德区乐从镇御庭沣酒店,1580400000,22.964226,113.095817,佛山市,佛山发布,https://mp.weixin.qq.com/s/R2C7yMToEwA775r7ITDsjg
713,顺德区北滘镇深业城,1580400000,22.925826,113.224899,佛山市,佛山发布,https://mp.weixin.qq.com/s/R2C7yMToEwA775r7ITDsjg
714,顺德区北滘镇碧桂西苑听涛居,1580400000,22.943624,113.276065,佛山市,佛山发布,https://mp.weixin.qq.com/s/R2C7yMToEwA775r7ITDsjg
715,顺德区北滘镇美的悦公馆,1580400000,22.943685,113.211383,佛山市,佛山发布,https://mp.weixin.qq.com/s/R2C7yMToEwA775r7ITDsjg
716,顺德区大良街道汇城华庭,1580486400,22.827591,113.259810,佛山市,佛山发布,https://mp.weixin.qq.com/s/rYXSSFnNTIIo-RsSPNy7CA
717,顺德区容桂街道扁滘柏悦湾,1580572800,22.768276,113.265119,佛山市,佛山发布,https://mp.weixin.qq.com/s/xmXTG3FdnsCqh0Jycrvo8Q
718,顺德区容桂街道晖胜尚轩,1580400000,22.754656,113.284393,佛山市,佛山发布,https://mp.weixin.qq.com/s/R2C7yMToEwA775r7ITDsjg
719,顺德区容桂街道龙光尚街大厦,1580400000,22.760754,113.275525,佛山市,佛山发布,https://mp.weixin.qq.com/s/R2C7yMToEwA775r7ITDsjg
720,顺德区龙江镇龙山南湖雅园,1580572800,22.853944,113.036353,佛山市,佛山发布,https://mp.weixin.qq.com/s/xmXTG3FdnsCqh0Jycrvo8Q
721,顺德区伦教街道中海万锦公馆,1580832000,22.868873,113.212932,佛山市,佛山发布,https://mp.weixin.qq.com/s/QJDfbvJlYvtVkdUnbICPvw
722,顺德区乐从镇沙滘北村聚星里大街,1580918400,22.947787,113.085728,佛山市,佛山发布,https://mp.weixin.qq.com/s/mooGP8w-Zz3iBgGfqXyFZg
723,顺德区容桂街道振华康富花园,1580918400,22.769804,113.279360,佛山市,佛山发布,https://mp.weixin.qq.com/s/mooGP8w-Zz3iBgGfqXyFZg
724,从化区城郊街新雍丽酒店,1580572800,23.561166,113.584218,广州市,广州市卫生健康委员会,http://wjw.gz.gov.cn/ztzl/xxfyyqfk/yqtb/content/post_5648584.html
725,南沙区南沙街坦头村槽船一街,1580572800,22.811981,113.571396,广州市,广州市卫生健康委员会,http://wjw.gz.gov.cn/ztzl/xxfyyqfk/yqtb/content/post_5648584.html
726,南沙区叠翠峰,1580572800,22.803129,113.526959,广州市,广州市卫生健康委员会,http://wjw.gz.gov.cn/ztzl/xxfyyqfk/yqtb/content/post_5648584.html
727,南沙区榄核镇蔡源东街,1580572800,22.843977,113.349489,广州市,广州市卫生健康委员会,http://wjw.gz.gov.cn/ztzl/xxfyyqfk/yqtb/content/post_5648584.html
728,南沙区碧桂园天玺湾小区,1580572800,22.804582,113.584249,广州市,广州市卫生健康委员会,http://wjw.gz.gov.cn/ztzl/xxfyyqfk/yqtb/content/post_5648584.html
729,南沙区黄阁镇万科南方公元,1580572800,22.811497,113.508144,广州市,广州市卫生健康委员会,http://wjw.gz.gov.cn/ztzl/xxfyyqfk/yqtb/content/post_5648584.html
730,南沙区黄阁镇璧珑湾,1580745600,22.806246,113.536279,广州市,广州市卫生健康委员会,http://wjw.gz.gov.cn/ztzl/xxfyyqfk/yqtb/content/post_5650395.html
731,增城区新塘镇太平洋花园,1580572800,23.122838,113.584587,广州市,广州市卫生健康委员会,http://wjw.gz.gov.cn/ztzl/xxfyyqfk/yqtb/content/post_5648584.html
732,增城区新塘镇尚东阳光,1580572800,23.108839,113.581813,广州市,广州市卫生健康委员会,http://wjw.gz.gov.cn/ztzl/xxfyyqfk/yqtb/content/post_5648584.html
733,增城区新塘镇翡翠绿洲,1580572800,23.144074,113.568190,广州市,广州市卫生健康委员会,http://wjw.gz.gov.cn/ztzl/xxfyyqfk/yqtb/content/post_5648584.html
734,增城区新塘镇西洲村,1580572800,23.106919,113.587791,广州市,广州市卫生健康委员会,http://wjw.gz.gov.cn/ztzl/xxfyyqfk/yqtb/content/post_5648584.html
735,增城区新塘镇西洲村豪门公寓,1580572800,23.125925,113.617586,广州市,广州市卫生健康委员会,http://wjw.gz.gov.cn/ztzl/xxfyyqfk/yqtb/content/post_5648584.html
736,增城区荔城街中海城市广场,1580572800,23.291830,113.831273,广州市,广州市卫生健康委员会,http://wjw.gz.gov.cn/ztzl/xxfyyqfk/yqtb/content/post_5648584.html
737,增城区新塘镇大墩村,1580745600,23.131437,113.674764,广州市,广州市卫生健康委员会,http://wjw.gz.gov.cn/ztzl/xxfyyqfk/yqtb/content/post_5650395.html
738,增城区新塘镇富丽园二街,1580832000,23.122406,113.625075,广州市,广州市卫生健康委员会,http://wjw.gz.gov.cn/ztzl/xxfyyqfk/content/post_5652046.html
739,增城区增江街道碧桂园,1580918400,23.137179,113.582758,广州市,广州市卫生健康委员会,http://wjw.gz.gov.cn/ztzl/xxfyyqfk/content/post_5653972.html
740,增城区增江街道碧桂园荔园,1581004800,23.281798,113.851850,广州市,广州市卫生健康委员会,http://wjw.gz.gov.cn/ztzl/xxfyyqfk/yqtb/content/post_5655251.html
741,天河区体育西小区,1580572800,23.136110,113.331641,广州市,广州市卫生健康委员会,http://wjw.gz.gov.cn/ztzl/xxfyyqfk/yqtb/content/post_5648584.html
742,天河区兴华街沙太南路,1580572800,23.168578,113.329475,广州市,广州市卫生健康委员会,http://wjw.gz.gov.cn/ztzl/xxfyyqfk/yqtb/content/post_5648584.html
743,天河区冼村街道华明路,1580572800,23.127950,113.329011,广州市,广州市卫生健康委员会,http://wjw.gz.gov.cn/ztzl/xxfyyqfk/yqtb/content/post_5648584.html
744,天河区冼村街道潭村路珠光御景,1580572800,23.123424,113.355546,广州市,广州市卫生健康委员会,http://wjw.gz.gov.cn/ztzl/xxfyyqfk/yqtb/content/post_5648584.html
745,天河区冼村街道珠光新城御景二期,1580572800,23.122039,113.354908,广州市,广州市卫生健康委员会,http://wjw.gz.gov.cn/ztzl/xxfyyqfk/yqtb/content/post_5648584.html
746,天河区冼村街道马场路富力花园,1580572800,23.119183,113.349956,广州市,广州市卫生健康委员会,http://wjw.gz.gov.cn/ztzl/xxfyyqfk/yqtb/content/post_5648584.html
747,天河区凤凰街道渔兴路,1580572800,23.211962,113.382164,广州市,广州市卫生健康委员会,http://wjw.gz.gov.cn/ztzl/xxfyyqfk/yqtb/content/post_5648584.html
748,天河区前进街盈彩美居街彩轩,1580572800,23.120623,113.424667,广州市,广州市卫生健康委员会,http://wjw.gz.gov.cn/ztzl/xxfyyqfk/yqtb/content/post_5648584.html
749,天河区合景路,1580572800,23.162018,113.414911,广州市,广州市卫生健康委员会,http://wjw.gz.gov.cn/ztzl/xxfyyqfk/yqtb/content/post_5648584.html
750,天河区天河新作,1580572800,23.141321,113.339042,广州市,广州市卫生健康委员会,http://wjw.gz.gov.cn/ztzl/xxfyyqfk/yqtb/content/post_5648584.html
751,天河区新塘街华观路云城米酷,1580572800,23.174553,113.391553,广州市,广州市卫生健康委员会,http://wjw.gz.gov.cn/ztzl/xxfyyqfk/yqtb/content/post_5648584.html
752,天河区棠下荷光广州锦顺酒店,1580572800,23.137547,113.381645,广州市,广州市卫生健康委员会,http://wjw.gz.gov.cn/ztzl/xxfyyqfk/yqtb/content/post_5648584.html
753,天河区棠下街华景新城陶然庭苑,1580572800,23.143718,113.367912,广州市,广州市卫生健康委员会,http://wjw.gz.gov.cn/ztzl/xxfyyqfk/yqtb/content/post_5648584.html
754,天河区棠下街枫叶路棠雅苑,1580572800,23.140600,113.374461,广州市,广州市卫生健康委员会,http://wjw.gz.gov.cn/ztzl/xxfyyqfk/yqtb/content/post_5648584.html
755,天河区棠下街道棠石路新景苑小区,1580572800,23.130317,113.375921,广州市,广州市卫生健康委员会,http://wjw.gz.gov.cn/ztzl/xxfyyqfk/yqtb/content/post_5648584.html
756,天河区海景花园,1580572800,23.129238,113.373147,广州市,广州市卫生健康委员会,http://wjw.gz.gov.cn/ztzl/xxfyyqfk/yqtb/content/post_5648584.html
757,天河区猎德街猎德复建房,1580572800,23.119319,113.341828,广州市,广州市卫生健康委员会,http://wjw.gz.gov.cn/ztzl/xxfyyqfk/yqtb/content/post_5648584.html
758,天河区石牌街暨南大学羊城苑,1580572800,23.136881,113.353945,广州市,广州市卫生健康委员会,http://wjw.gz.gov.cn/ztzl/xxfyyqfk/yqtb/content/post_5648584.html
759,天河区车陂街林南文化酒店,1580572800,23.130561,113.403241,广州市,广州市卫生健康委员会,http://wjw.gz.gov.cn/ztzl/xxfyyqfk/yqtb/content/post_5648584.html
760,天河区兴华街道粤垦路金燕花苑,1580745600,23.158969,113.339959,广州市,广州市卫生健康委员会,http://wjw.gz.gov.cn/ztzl/xxfyyqfk/yqtb/content/post_5650395.html
761,天河区冼村街道珠光新城御景,1580832000,23.121837,113.353352,广州市,广州市卫生健康委员会,http://wjw.gz.gov.cn/ztzl/xxfyyqfk/content/post_5652046.html
762,天河区中南街道南丫村,1580572800,23.050296,113.233978,广州市,广州市卫生健康委员会,http://wjw.gz.gov.cn/ztzl/xxfyyqfk/yqtb/content/post_5648584.html
763,天河区棠下街道锦顺酒店,1581004800,23.137547,113.381645,广州市,广州市卫生健康委员会,http://wjw.gz.gov.cn/ztzl/xxfyyqfk/yqtb/content/post_5655251.html
764,天河区车陂街道城市假日园,1581004800,23.132248,113.410283,广州市,广州市卫生健康委员会,http://wjw.gz.gov.cn/ztzl/xxfyyqfk/yqtb/content/post_5655251.html
765,天河区兴华街道沙太南路,1581091200,23.169110,113.330027,广州市,广州市卫生健康委员会,http://wjw.gz.gov.cn/ztzl/xxfyyqfk/yqtb/content/post_5656571.html
766,海珠区凤阳街道和平家园,1580572800,23.092611,113.321219,广州市,广州市卫生健康委员会,http://wjw.gz.gov.cn/ztzl/xxfyyqfk/yqtb/content/post_5648584.html
767,海珠区南华西街道同福西路,1580572800,23.108876,113.260800,广州市,广州市卫生健康委员会,http://wjw.gz.gov.cn/ztzl/xxfyyqfk/yqtb/content/post_5648584.html
768,海珠区南石头街道保利花园,1580659200,23.077236,113.280303,广州市,广州市卫生健康委员会,http://wjw.gz.gov.cn/ztzl/xxfyyqfk/yqtb/content/post_5649287.html
769,海珠区南石头街鸡春岗新街,1580572800,23.089188,113.323741,广州市,广州市卫生健康委员会,http://wjw.gz.gov.cn/ztzl/xxfyyqfk/yqtb/content/post_5648584.html
770,海珠区小港路涌边东九巷,1580572800,23.089188,113.323741,广州市,广州市卫生健康委员会,http://wjw.gz.gov.cn/ztzl/xxfyyqfk/yqtb/content/post_5648584.html
771,海珠区新港街国际轻纺城双子星城星辰轩,1580572800,23.096708,113.305215,广州市,广州市卫生健康委员会,http://wjw.gz.gov.cn/ztzl/xxfyyqfk/yqtb/content/post_5648584.html
772,海珠区江海街石榴岗路,1580659200,23.093477,113.343480,广州市,广州市卫生健康委员会,http://wjw.gz.gov.cn/ztzl/xxfyyqfk/yqtb/content/post_5649287.html
773,海珠区沙园街昌岗中路,1580572800,23.089188,113.323741,广州市,广州市卫生健康委员会,http://wjw.gz.gov.cn/ztzl/xxfyyqfk/yqtb/content/post_5648584.html
774,海珠区瑞宝街金恒路,1580572800,23.089188,113.323741,广州市,广州市卫生健康委员会,http://wjw.gz.gov.cn/ztzl/xxfyyqfk/yqtb/content/post_5648584.html
775,海珠区赤岗街新港中路影城花园,1580572800,23.101587,113.325276,广州市,广州市卫生健康委员会,http://wjw.gz.gov.cn/ztzl/xxfyyqfk/yqtb/content/post_5648584.html
776,海珠区锦江之星,1580572800,23.086231,113.285081,广州市,广州市卫生健康委员会,http://wjw.gz.gov.cn/ztzl/xxfyyqfk/yqtb/content/post_5648584.html
777,海珠区革新路船舶太古酒店,1580572800,23.095654,113.261223,广州市,广州市卫生健康委员会,http://wjw.gz.gov.cn/ztzl/xxfyyqfk/yqtb/content/post_5648584.html
778,海珠区龙凤街道金沙路富力现代,1580659200,23.097014,113.264697,广州市,广州市卫生健康委员会,http://wjw.gz.gov.cn/ztzl/xxfyyqfk/yqtb/content/post_5649287.html
779,海珠区江悦酒店,1580745600,23.108774,113.253312,广州市,广州市卫生健康委员会,http://wjw.gz.gov.cn/ztzl/xxfyyqfk/yqtb/content/post_5650395.html
780,海珠区江海街道大塘东边街,1580745600,23.090448,113.337816,广州市,广州市卫生健康委员会,http://wjw.gz.gov.cn/ztzl/xxfyyqfk/yqtb/content/post_5650395.html
781,海珠区滨江街道沙地直街,1580745600,23.114720,113.288955,广州市,广州市卫生健康委员会,http://wjw.gz.gov.cn/ztzl/xxfyyqfk/yqtb/content/post_5650395.html
782,海珠区琶洲街道琶洲新村,1580745600,23.106607,113.388269,广州市,广州市卫生健康委员会,http://wjw.gz.gov.cn/ztzl/xxfyyqfk/yqtb/content/post_5650395.html
783,海珠区赤岗街石榴岗路,1580745600,23.093477,113.343480,广州市,广州市卫生健康委员会,http://wjw.gz.gov.cn/ztzl/xxfyyqfk/yqtb/content/post_5650395.html
784,海珠区赤岗街道纵横公寓,1580745600,23.101417,113.336643,广州市,广州市卫生健康委员会,http://wjw.gz.gov.cn/ztzl/xxfyyqfk/yqtb/content/post_5650395.html
785,海珠区琶洲街道保利天悦,1580832000,23.108763,113.386064,广州市,广州市卫生健康委员会,http://wjw.gz.gov.cn/ztzl/xxfyyqfk/content/post_5652046.html
786,海珠区瑞宝街道金碧花园,1580832000,23.075321,113.293534,广州市,广州市卫生健康委员会,http://wjw.gz.gov.cn/ztzl/xxfyyqfk/content/post_5652046.html
