id,name,time,lat,lng
0,红塔区北城街道大石板社区秧草塘村,1580572800,24.470383,102.518564
1,红塔区红塔大道50号华瑞小区,1580486400,24.346475,102.552853
2,元江哈尼族彝族傣族自治县玉景苑小区,1581091200,23.585408,102.009353
3,西山区绿地大城天地商业区,1580745600,25.019502,102.708626
4,西山区永昌街道绿地大城天地4B商业22-5栋,1581004800,25.019580,102.708322
5,官渡区小板桥街道海伦国际小区,1580400000,24.972677,102.751750
6,官渡区矣六街道星体花园北区13栋1单元,1581004800,24.946140,102.768898
7,盘龙区金殿武家村,1580400000,25.122211,102.758576
8,盘龙区联盟街道云锡花园2区西区1栋2单元,1581004800,25.077727,102.742992
9,东川区乌龙镇黄包谷地小组,1581004800,25.981869,103.085750
10,五华区红云街道江东耀龙康城8栋3单元,1581004800,25.104570,102.736698
11,五华区丰宁街道春晖小区颐达园3栋,1581004800,25.056789,102.683081
12,安宁市昆船花园小区13栋2单元,1581004800,24.925842,102.484409
13,安宁市金方街道恒大金碧天下博雅苑25栋1单元,1581004800,24.895772,102.568902
14,寻甸县塘子街道办事处小瓦匠村,1581004800,25.482902,103.290173
15,腾冲市镇安镇,1580400000,25.026545,98.497466
16,瑞丽市五缘玉城小区,1580400000,24.029923,97.852803
17,景洪市 景洪农场三分场,1580400000,21.991377,100.759977
18,景洪市曼哈乡曼伞囡村,1580400000,21.765785,101.053935
19,丰满区中海紫御江城,1580659200,43.838210,126.573684
20,昌邑区吉炭小区,1580745600,43.881086,126.588273
21,净月区万科城,1580572800,43.805290,125.393239
22,净月区博学路东城国际花园小区,1580486400,43.826003,125.421294
23,净月区净月街道财苑家园,1580745600,43.833540,125.453122
24,朝阳区崇智路694号,1580486400,43.898535,125.320549
25,绿园区西城国际公馆,1580659200,43.904510,125.275324
26,绿园区长客花园,1581004800,43.915473,125.296178
27,高新区中海兰庭小区,1580486400,43.789368,125.265626
28,高新区北湾新城,1580832000,43.975386,125.397757
29,高新区恒大绿洲,1580832000,43.780613,125.265493
30,高新区飞跃经典小区,1580832000,43.838619,125.247788
31,高新区吉大南校家属楼,1581177600,43.835129,125.285737
32,九台区龙凤二期,1580832000,44.230683,125.693165
33,九台区工商一条街铁路家属楼,1580918400,44.155910,125.844847
34,二道区力旺康城小区,1580832000,43.951683,125.377219
35,二道区天富北苑,1581004800,43.913445,125.381037
36,宽城区北十条荣旺天下,1580832000,43.922875,125.356990
37,宽城区金都小镇,1581177600,43.971679,125.293086
38,经开区首地首城,1581177600,43.847298,125.417761
39,十屋镇双河村1组,1581091200,43.827232,124.256500
40,怀德镇三合堡村8组,1580745600,43.821273,124.713401
41,秦家屯镇南平村5队,1580745600,43.791779,124.663522
42,宁河区芦台镇王北村,1580572800,39.364648,117.778595
43,宁河区芦台镇运河家园,1580572800,39.357660,117.808960
44,宝坻区宝平街道华苑东区,1580659200,39.714832,117.312473
45,宝坻区宝平街道宝平景苑东区,1580659200,39.713545,117.301915
46,宝坻区宝平街道宝平景苑西区,1580572800,39.714700,117.297967
47,宝坻区宝平街道河景馨园小区,1580659200,39.708276,117.295854
48,宝坻区朝霞街道开元新居小区,1580486400,39.747222,117.291429
49,宝坻区海滨街道宝鑫景苑小区,1580486400,39.737580,117.328542
50,宝坻区海滨街道御景华城小区,1580832000,39.745025,117.356708
51,宝坻区牛道口镇焦山寺村,1580659200,39.784768,117.297394
52,宝坻区钰华街道凯瑞国际小区,1580572800,39.728796,117.342896
53,宝坻区大口屯镇古庄村,1580745600,39.598941,117.265354
54,宝坻区大钟庄镇大钟庄村,1580745600,39.693528,117.583813
55,宝坻区海滨街道蓝水湾小区,1580832000,39.745618,117.305899
56,宝坻区口东镇前齐各庄村,1580918400,39.675504,117.412018
57,宝坻区宝平街道瑞景花园小区,1580918400,39.728244,117.318368
58,宝坻区朝霞街道状元城小区,1580918400,39.747222,117.291429
59,宝坻区林亭口镇窝贝厂村,1580918400,39.609188,117.540123
60,宝坻区钰华街道金玉四园小区,1580918400,39.704944,117.315816
61,宝坻区宝平街道宝境檀香小区,1581004800,39.698975,117.283094
62,宝坻区牛道口镇沟头村,1581004800,39.820389,117.213926
63,宝坻区宝平街道凯旋家园小区,1581091200,39.701082,117.304368
64,宝坻区宝平街道蝶恋新园小区,1581091200,39.718610,117.290669
65,宝坻区钰华街道顺驰小区,1581091200,39.721568,117.336755
66,宝坻区史各庄镇陈甫村,1581177600,39.736122,117.251221
67,宝坻区宝平街道逸城雅园小区,1581177600,39.710685,117.308225
68,滨海新区中新生态城,1580313600,39.122985,117.743982
69,滨海新区万通上北新新家园,1580918400,39.067527,117.654282
70,东丽区揽湖苑别墅,1580659200,39.184644,117.505469
71,东丽区华明街道坤园,1580918400,39.184763,117.386087
72,西青区杨柳青镇,1580572800,39.134750,117.020467
73,西青区中北镇溪秀苑小区,1581091200,39.130492,117.099693
74,津南区双港镇,1580832000,39.048549,117.325283
75,北辰区普东街强宜里小区,1580918400,39.196323,117.211462
76,琅琊区清流街道泰鑫现代城东区,1580659200,32.306205,118.323552
77,凤阳县官塘镇,1580659200,32.689845,117.226148
78,天长市天长街道,1580659200,32.685513,119.019145
79,天长市汊涧镇,1580659200,32.672169,118.782065
80,明光市古沛镇,1580659200,32.996147,118.010907
81,和县功桥镇,1580140800,31.577393,118.200840
82,和县白桥镇,1580313600,31.535248,118.315011
83,和县西埠镇,1580486400,31.774793,118.297969
84,和县香泉镇,1580140800,31.876716,118.332250
85,当涂县黄池镇,1580140800,31.313363,118.612591
86,雨山区泰和天成,1580313600,31.661081,118.518811
87,雨山区红旗花园,1580313600,31.702533,118.501349
88,雨山区阳光城,1580572800,31.668078,118.599970
89,花山区同济花园,1581091200,31.711946,118.522414
90,利辛县城关镇五一路,1580745600,33.147514,116.213657
91,利辛县城关镇文物所家属院,1580745600,33.150274,116.205653
92,利辛县城关镇港口新村老供销社家属院,1580745600,33.145114,116.208210
93,利辛县城关镇顺河村姚庄,1580745600,33.138515,116.145155
94,利辛县城关镇黄桥社区,1580745600,33.155259,116.207417
95,利辛县潘楼镇张大庄村张大庄,1580745600,33.260138,116.327919
96,利辛县王市镇刘沈村刘寨,1580745600,33.144480,116.104386
97,利辛县纪王场乡纪竹园庄,1580745600,33.347604,116.137012
98,利辛县胡集镇李圩村腰西庄,1580745600,32.962101,116.244580
99,利辛县西潘楼镇张集村东刘,1580745600,33.207871,116.129565
100,利辛县阚疃镇人民南路,1580745600,33.137759,116.213919
101,利辛县城关镇金龙国际新城,1580918400,33.168706,116.218734
102,利辛县城关镇中央名城小区,1581004800,33.150274,116.205653
103,利辛县城关镇复兴社区利东东区,1581004800,33.128557,116.213443
104,利辛县城关镇春店社区胜利村,1581004800,33.164607,116.239148
105,利辛县城关镇前进路英伦华帝小区,1581091200,33.151353,116.198170
106,利辛县老二中对面黄寨社区,1581091200,33.146857,116.149725
107,利辛县西潘楼镇东潘楼村,1581091200,33.204049,116.147163
108,利辛县城关镇闫郢村董老寨,1581177600,33.181968,116.219098
109,涡阳县城关镇街道北环中路,1580745600,33.522273,116.223957
110,涡阳县城关镇街道医苑新村,1580745600,33.496059,116.213176
111,涡阳县新兴镇付庄行政村付庄,1580745600,33.661903,116.412659
112,涡阳县新兴镇左楼付庄,1580745600,33.708006,116.230719
113,涡阳县星园街道桂语城栖,1580745600,33.478321,116.197400
114,涡阳县花沟镇孙小桥行政村李楼,1580745600,33.505767,116.134366
115,涡阳县马店集镇李庄行政村李庄,1580745600,33.669188,116.363501
116,涡阳县城关街道紫光大道与育英路交口向南,1580918400,33.501459,116.209999
117,涡阳县城关镇乐行家园,1580918400,33.512146,116.220871
118,涡阳县新兴镇付庄行政村,1580918400,33.708006,116.230719
119,涡阳县花沟镇孙小桥行政村,1580918400,33.505767,116.134366
120,涡阳县新兴镇左楼村,1581004800,33.685024,116.244823
121,涡阳县新汽车站对面路北小区幸福港湾,1581004800,33.500767,116.192705
122,涡阳县城关街道巨人印象小区,1581091200,33.494877,116.206273
123,涡阳县新兴镇左楼行政村大围子自然村,1581177600,33.601665,116.240360
124,涡阳县花沟镇狄马村,1581177600,33.499336,116.104765
125,蒙城县三义镇义兴街,1580745600,33.105736,116.482228
126,蒙城县乐土镇双桥村褚尹庄,1580745600,33.085865,116.623141
127,蒙城县乐土镇柳林街,1580745600,33.113359,116.658378
128,蒙城县城关街道金天地商业街,1580745600,33.261956,116.563059
129,蒙城县庄周街道玖隆国际C区,1580745600,33.245955,116.567193
130,蒙城县许疃镇赵集村东孙庄,1580745600,33.407803,116.791663
131,蒙城县许疃镇闫集村后钱庄,1580745600,33.381217,116.669756
132,蒙城县庄周街道桂堰小区,1580918400,33.247943,116.600867
133,谯城区亿丰御景小区,1580745600,33.844977,115.792556
134,谯城区十八里镇候桥村赵老家,1580745600,33.786218,115.633889
135,谯城区御花园小区,1580745600,33.863963,115.775411
136,谯城区薛阁办事处白依路包园新村,1580745600,33.875349,115.795785
137,谯城区颜集镇曹寺行政村东张庄,1580745600,33.958130,116.002206
138,谯城区华佗镇程屯村,1580918400,33.936485,115.774285
139,谯城区华佗镇程屯村小王庄,1581091200,33.948659,115.728055
140,高新区建投世纪城,1580745600,33.811028,115.768197
141,高新区翡翠庄园,1580745600,33.825239,115.773983
142,高新区豪泽丽景小区,1580745600,33.833713,115.777920
143,包河区宝利丰广场,1580832000,31.841174,117.293366
144,包河区曙宏南苑,1580832000,31.830420,117.282334
145,包河区滨湖明珠西区,1580832000,31.738912,117.288754
146,包河区琼林苑小区,1580832000,31.753796,117.296506
147,包河区豪门金地小区,1580832000,31.712229,117.287140
148,包河区金湾嘉园,1580832000,31.855728,117.312691
149,包河区兴丰苑小区,1581091200,31.856152,117.299758
150,巢湖市凤凰山街道城市之光C区,1580832000,31.622418,117.884472
151,巢湖市槐林镇武山居委会,1580832000,31.427260,117.618682
152,庐江县冶父山镇冶父山社区,1580832000,31.275924,117.340357
153,庐江县同大镇施丰村,1580832000,31.482432,117.298634
154,庐江县庐城镇翠绿园,1580832000,31.263525,117.301155
155,庐江县柯坦镇城池村,1580832000,31.195574,117.192492
156,庐江县矾山镇新中村,1580832000,31.071346,117.438949
157,庐江县罗河镇吉桥村,1580832000,31.069466,117.244269
158,庐江县罗河镇鲍店村,1580832000,30.988277,117.399163
159,庐江县金牛镇铺岗村,1580832000,31.382560,117.176553
160,庐阳区古城新村,1580832000,31.882074,117.262181
161,庐阳区探矿厂宿舍,1580832000,31.911258,117.292576
162,庐阳区杏林花园南区,1580832000,31.900068,117.293856
163,庐阳区柏景湾青云轩,1580832000,31.882968,117.278069
164,庐阳区海亮红玺台小区,1580918400,31.898485,117.272613
165,庐阳区海棠别院,1580918400,31.899378,117.275458
166,庐阳区四泉花园南区,1581091200,31.891583,117.259926
167,庐阳区土产日杂公司宿舍,1581091200,31.904402,117.264659
168,新站区合郢花园,1580832000,31.910259,117.379489
169,新站区园上园公寓楼,1580832000,31.893357,117.364899
170,新站区家天下3期,1580832000,31.899637,117.331336
171,新站区新海尚宸家园,1580832000,31.905105,117.348673
172,新站区昊天园小区,1580832000,31.938910,117.429810
173,新站区京商商贸城,1580918400,31.934253,117.349967
174,新站区张洼新村,1580918400,31.911054,117.326208
175,新站区金辉悦府小区,1580918400,31.924459,117.331004
176,瑶海区临泉花苑小区,1580832000,31.892381,117.310614
177,瑶海区元一名城,1580832000,31.896285,117.299255
178,瑶海区凤翔家园,1580832000,31.879688,117.328236
179,瑶海区华都城市花园,1580832000,31.872362,117.383272
180,瑶海区怡馨苑,1580832000,31.887644,117.307748
181,瑶海区恒丰嘉园,1580832000,31.874785,117.330807
182,瑶海区恒大中央广场,1580832000,31.881524,117.305157
183,瑶海区斯瑞新景苑,1580832000,31.881050,117.374005
184,瑶海区新创益民家园,1580832000,31.874198,117.394283
185,瑶海区温莎国际广场,1580832000,31.880137,117.315996
186,瑶海区铜陵路工业锅炉厂宿舍,1580832000,31.875870,117.330092
187,瑶海区长江东路五里井17栋,1580832000,31.873052,117.335250
188,瑶海区芳邻家园,1580918400,31.879195,117.340126
189,瑶海区大兴镇合浦新村（恢复楼）,1581004800,31.871985,117.360682
190,肥东县八斗镇王城社区,1580832000,32.145055,117.684291
191,肥东县店埠镇光大居委会光大新村,1580832000,31.896707,117.459871
192,肥东县店埠镇凯旋公馆,1580832000,31.895768,117.455112
193,肥东县店埠镇和平社区汇景新城,1580832000,31.893050,117.468278
194,肥东县店埠镇定光社区传桥组,1580832000,31.883598,117.494182
195,肥东县店埠镇定光社区新农村小区,1580832000,31.883598,117.494182
196,肥东县店埠镇新城社区新城家园,1580832000,31.872520,117.458753
197,肥东县店埠镇镇南社区,1580832000,31.887680,117.476097
198,肥东县店埠镇青春社区育红小学宿舍楼,1580832000,31.890812,117.477687
199,肥东县牌坊回族满族乡民新村,1580832000,31.956139,117.513838
200,肥东县石塘镇供销社宿舍,1580832000,31.937971,117.639928
201,肥东县石塘镇新展社区,1580832000,31.937971,117.639928
202,肥东县石塘镇龙城社区,1580832000,31.905318,117.574410
203,肥东县陈大郢社区紫玉华府,1580832000,31.895852,117.427154
204,肥东县马湖乡沙河村,1580832000,32.053394,117.852714
205,肥东县马湖乡马湖社区,1580832000,32.075769,117.850893
206,肥东县店埠镇星光嘉苑,1581091200,31.895687,117.473250
207,肥西县上派镇华邦万派城,1580832000,31.733228,117.170677
208,肥西县上派镇韩圩村,1580832000,31.690635,117.202522
209,肥西县桃花镇东冠繁华逸城,1580832000,31.788310,117.179257
210,肥西县桃花镇信地华地城,1580832000,31.786386,117.171651
211,肥西县铭传乡墩塘村,1580918400,31.767896,116.793209
212,肥西县山南镇光明村,1581004800,31.678514,116.779015
213,蜀山区中央美域A区,1580832000,31.873684,117.242971
214,蜀山区中铁青秀城,1580832000,31.878036,117.251446
215,蜀山区内森庄园,1580832000,31.821825,117.220521
216,蜀山区和谐家园（长丰南路）,1580832000,31.825888,117.252665
217,蜀山区天和园,1580832000,31.813952,117.217562
218,蜀山区当代花园,1580832000,31.836039,117.230356
219,蜀山区颐和阳光100小区,1580832000,31.863989,117.248640
220,蜀山区颐园世家,1580832000,31.805603,117.226992
221,蜀山区龙居山庄天龙居,1580832000,31.871345,117.248282
222,蜀山区安徽电力公司黄山路生活区,1580918400,31.869978,117.214233
223,蜀山区岳西新村B区,1580918400,31.857449,117.230550
224,蜀山区通和易居北苑,1581004800,31.853080,117.254976
225,蜀山区家家景园3期,1581091200,31.864271,117.236133
226,长丰县岗集镇玉成明珠苑,1580832000,31.951995,117.198255
227,长丰县阿奎利亚城品,1580832000,31.962375,117.266196
228,长丰县下塘镇顾圩村,1581004800,32.206346,117.266194
229,长丰县北城世纪城一期颐徽苑,1581091200,32.011491,117.251323
230,长丰县北城明珠小区,1581091200,31.976846,117.266670
231,高新区岭湖墅,1580832000,31.829171,117.155676
232,南陵县新世纪花园,1580918400,30.920851,118.347234
233,南陵县籍山镇东门大桥天禧楼小区,1580918400,30.925113,118.355562
234,弋江区中南街道江岸明珠,1580918400,31.322160,118.376634
235,弋江区南瑞街道江城国际瑞华苑,1580918400,31.307304,118.400672
236,弋江区江岸明珠小区,1581091200,31.322160,118.376634
237,无为市严桥镇响山中学,1580918400,31.448875,117.805383
238,无为市无城镇凤河路金河小区,1580918400,31.313418,117.912118
239,无为市无城镇府苑小区,1580918400,31.310804,117.906337
240,无为市陡沟镇凤凰桥社区薛巷自然村,1580918400,31.422590,118.085809
241,无为市陡沟镇陡沟社区健博花园小区,1580918400,31.361872,118.019844
242,无为市洪巷镇青岗行政村陈一自然村,1581004800,31.100659,117.740261
243,无为市高沟镇健全行政村东湖自然村,1581004800,31.130997,117.932026
244,无为市开城镇羊山行政村羊场自然村,1581004800,31.296798,117.754112
245,芜湖县红杨镇红杨树社区六桥自然村,1580918400,31.071180,118.563904
246,镜湖区七更点社区华盛小区,1580918400,31.332008,118.370360
247,镜湖区凯旋社区绿地伊顿公馆,1580918400,31.336231,118.417622
248,镜湖区文化路社区白金湾小区,1580918400,31.344021,118.393391
249,镜湖区海南渡社区绿地6号地块C区,1580918400,31.333713,118.421963
250,鸠江区清水街道金都檀宫小区,1580918400,31.336493,118.478160
251,鸠江区龙山街道西梁山危化品锚地,1580918400,31.473819,118.414599
252,经开区奇瑞BOBO城H区,1581091200,31.467006,118.403884
253,裕安区凯旋名门3号楼,1580832000,31.741024,116.479860
254,裕安区华邦新华城,1580832000,31.759554,116.494609
255,裕安区帝都豪园13栋,1580832000,31.746284,116.491356
256,裕安区独山镇茶叶市场,1580832000,31.759393,116.516864
257,裕安区狮子岗黄大路村,1580832000,31.780397,116.221876
258,裕安区苏埠镇祝张路黄莲村岗桥组,1580832000,31.639956,116.402208
259,裕安区西河口镇马林村,1580832000,31.563589,116.282162
260,裕安区青山乡八字岗村汪冲组,1580832000,31.570628,116.399383
261,裕安区西市街道帝都豪园小区,1581004800,31.746378,116.492041
262,金安区中市街道前进社区浙东商贸城D区,1580832000,31.752243,116.503987
263,金安区孙岗镇五十铺村士坤组,1580832000,31.589478,116.658365
264,金安区椿树镇龙穴村张大郢组,1580832000,31.708869,116.666551
265,金安区清水河街道刘园社区海心沙小区,1580832000,31.785706,116.513309
266,金寨县关庙乡关庙村,1580832000,31.504335,115.504802
267,金寨县南溪镇南溪村,1580832000,31.521225,115.647064
268,金寨县吴家店镇街道,1580832000,31.289393,115.584767
269,金寨县果子园乡姚冲村,1580832000,31.352143,115.651988
270,金寨县梅山镇明逸城小区,1580832000,31.682990,115.885638
271,金寨县梅山镇香港花园小区,1580832000,31.728375,115.946647
272,金寨县汤汇镇豹迹岩村,1580832000,31.649671,115.587547
273,金寨县铁冲乡街道,1580832000,31.750095,115.687462
274,金寨县汤家汇镇,1581004800,31.615341,115.594452
275,霍山县佛子岭镇通水灌村,1580832000,31.368470,116.312856
276,霍山县衡山镇上元街社区,1580832000,31.408851,116.322811
277,霍山县衡山镇南岳村,1580832000,31.401283,116.318385
278,霍山县衡山镇南潭社区,1580832000,31.408863,116.335518
279,霍山县衡山镇和顺花园D区,1580832000,31.408851,116.322811
280,霍山县衡山镇文峰社区,1580832000,31.403369,116.345584
281,霍山县衡山镇荷香社区,1580832000,31.407407,116.338837
282,霍山县衡山镇衡山社区,1580832000,31.400021,116.339545
283,霍山县衡山镇西大街社区,1580832000,31.412094,116.329669
284,霍山县黑石渡镇新店河村,1580832000,31.438337,116.234347
285,霍山县与儿街镇儿街社区,1580832000,31.391697,116.456435
286,霍山县与儿街镇山王河村,1580832000,31.435907,116.404864
287,霍山县与儿街镇,1581004800,31.392458,116.453473
288,霍山县佛子岭镇,1581004800,31.366200,116.261771
289,霍山县经济开发区,1581004800,31.430634,116.391224
290,霍山县衡山镇,1581004800,31.408851,116.322811
291,霍邱县城关镇玉泉社区惠民小区,1580832000,32.344400,116.286762
292,霍邱县宋店乡留城寺村老庄组,1580832000,32.186675,116.225814
293,霍邱县开发区马圩村学田组,1580832000,32.080500,116.032995
294,霍邱县范桥镇刘庙村北下组,1580832000,32.453879,116.036000
295,霍邱县高塘镇新桥村岗头组,1580832000,32.390202,116.071095
296,霍邱县龙潭镇龙王庙村南楼组,1580832000,32.107638,115.958842
297,霍邱县龙潭镇,1581004800,32.199019,116.000648
298,太湖县小池镇中心村桥头组,1580918400,30.519051,116.436267
299,太湖县新仓镇金鸡村蔡榜组,1580918400,30.435545,116.405158
300,太湖县晋熙镇天高财富广场,1580918400,30.451171,116.329881
301,宜秀区大龙山镇百华村何洼组,1580918400,30.632863,117.014637
302,宜秀区白泽湖乡大枫村大塘组,1580918400,30.618767,117.132332
303,宿松县佐坝乡环湖村桂咀组,1580918400,30.000165,116.109215
304,宿松县佐坝乡碧岭村徐岭组,1580918400,30.115938,116.110728
305,宿松县北浴乡马厂村曹湾组,1580918400,30.387221,115.959412
306,宿松县复兴镇套口村五社组,1580918400,29.912951,116.542960
307,宿松县孚玉镇光明社区棉麻新居小区,1580918400,30.170667,116.124540
308,宿松县汇口镇团结村新埂组,1580918400,29.870868,116.276261
309,宿松县破凉镇雪镇村阳田组,1580918400,30.232761,116.177294
310,宿松县长铺镇马塘村余西组,1580918400,30.185353,116.190831
311,宿松县孚玉镇梨园新村小区,1581091200,30.159041,116.133091
312,岳西县冶溪镇琥珀村琥珀组,1580918400,30.745996,115.917811
313,岳西县古坊乡下坊村宁畈组,1580918400,30.884518,115.950757
314,岳西县天堂镇城东社区小城宝邸小区,1580918400,30.856212,116.378092
315,岳西县天堂镇阳光小区,1580918400,30.851180,116.375900
316,岳西县店前镇店前村李屋组,1580918400,30.732744,116.021065
317,岳西县河图镇皖源村河湾组,1580918400,30.920665,115.995422
318,岳西县白帽镇余河村粮油组,1580918400,30.818348,115.920950
319,怀宁县凉亭乡双湖村庙兴组,1580918400,30.738652,116.946919
320,怀宁县凉亭乡双湖村珠林组,1580918400,30.749256,116.938410
321,怀宁县马庙镇鹿苑村双桂组,1580918400,30.745301,116.742959
322,怀宁县黄墩镇高楼村团结组,1580918400,30.619083,116.780515
323,怀宁县高河镇黄梅阁小区,1581004800,30.729357,116.836517
324,怀宁县石牌镇广丰村新建组,1580918400,30.408811,116.710195
325,怀宁县平山镇鸣凤村胜天组,1581177600,30.468977,116.658617
326,望江县华阳镇计渡村石闸三组,1580918400,30.091771,116.721807
327,望江县赛口镇兴龙村,1580918400,30.357596,116.793587
328,望江县长岭镇后埠村同东屋,1580918400,30.243604,116.594989
329,桐城市双港镇双港镇民畈村新民组,1580918400,30.789615,116.978380
330,桐城市双港镇潘赛村西瓜组,1580918400,30.808265,117.004673
331,桐城市文昌街道公园社区粮食局宿舍,1580918400,31.059799,116.958590
332,桐城市文昌街道石河村大隔组,1580918400,31.036027,116.953370
333,桐城市新渡镇双墩村合胜组,1580918400,30.823142,116.852419
334,桐城市新渡镇罗潭村罗潭组,1580918400,30.856103,116.895526
335,桐城市范岗镇棋盘岭村张老屋队,1580918400,30.945441,116.914485
336,桐城市龙眠街道碧桂园小区,1580918400,31.066606,116.979241
337,桐城市龙眠街道长生社区三隔组,1580918400,31.066606,116.979241
338,桐城市龙眠街道阅城国际小区,1580918400,31.050209,116.972398
339,桐城市龙眠街道黄燕村横排组,1580918400,31.111214,116.894763
340,桐城市双港镇民畈村新民组,1581091200,30.789615,116.978380
341,桐城市新渡镇永久村程西组,1581091200,30.930509,116.899330
342,桐城市银杏花园小区,1581177600,30.825000,116.950338
343,潜山市梅城镇水岸江南B区,1580918400,30.642256,116.591583
344,潜山市源潭镇田墩新村,1580918400,30.900037,116.687143
345,经开区菱北街道菱建小区,1580918400,30.545150,117.073306
346,经开区菱北街道香樟里小区,1580918400,30.541470,117.066838
347,经开区景湖嘉苑小区,1581004800,30.536623,117.079920
348,迎江区华中路街道御景国际小区,1580918400,30.518034,117.060087
349,迎江区滨江街道碧桂园1号公园小区,1580918400,30.513621,117.050441
350,大观区关岳庙街二监宿舍小区,1581004800,30.517533,117.044466
351,淮上区吴小街镇通城紫都10栋,1580918400,32.975007,117.400728
352,淮上区小蚌埠镇外滩花园20栋,1580918400,32.974274,117.371659
353,淮上区小蚌埠镇荷花园小区一期A5号楼,1580918400,32.978123,117.385658
354,淮上区梅桥镇淝南村,1580918400,33.039074,117.306476
355,淮上区淮滨街道上河时代北区,1581004800,32.975337,117.372560
356,淮上区淮滨街道上河时代北区20栋,1581091200,32.975337,117.372560
357,禹会区张公山街道张公山二村对面郊区机关宿舍楼,1580918400,32.931119,117.338451
358,禹会区张公山街道张公山北门制钉厂,1580918400,32.927299,117.348385
359,禹会区纬四街道胜利公寓2栋,1580918400,32.944424,117.355372
360,禹会区钓鱼台街道锦绣香堤B区13栋,1580918400,32.919235,117.354878
361,禹会区钓鱼台街道喜盈门二期,1581004800,32.919480,117.355299
362,禹会区张公山派出所旁,1581091200,32.932409,117.339520
363,蚌山区宏业村街道万达广场C区3号楼,1580918400,32.925993,117.366380
364,蚌山区青年街道同乐园小区8号楼,1580918400,32.948380,117.368911
365,蚌山区青年街道大舞台小区1栋,1580918400,32.946442,117.367340
366,蚌山区黄庄街道新天地小区,1581004800,32.940904,117.364958
367,蚌山区黄庄街道水游城B区7栋,1581091200,32.925043,117.402996
368,龙子湖区东升街道东方新天地小区18栋,1580918400,32.955075,117.390984
369,龙子湖区延安街道隆华小区2栋,1580918400,32.946615,117.380373
370,龙子湖区治淮街道长淮路270号水科新楼,1580918400,32.958032,117.382514
371,龙子湖区解放街道广厦小区2栋,1580918400,32.953713,117.396077
372,龙子湖区东升街道东方新天地,1581004800,32.955075,117.390984
373,龙子湖区东升街道交通路186号,1581004800,32.955009,117.384132
374,龙子湖区延安街道中铁都市家园,1581004800,32.946895,117.392902
375,龙子湖区延安街道延安一村,1581004800,32.955459,117.377678
376,龙子湖区治淮街道东苑小区,1581004800,32.952188,117.377980
377,龙子湖区治淮街道延安三区,1581004800,32.955047,117.381299
378,龙子湖区治淮街道淮河路854号,1581004800,32.950939,117.380522
379,龙子湖区解放街道广厦小区,1581004800,32.953713,117.396077
380,龙子湖区解放街道金润名都,1581004800,32.954492,117.398992
381,龙子湖区东升街道凤阳东路480号东单元,1581091200,32.951316,117.391660
382,龙子湖区东风街道淮河路854号2单元,1581091200,32.950939,117.380522
383,龙子湖区解放街道金润名都7栋,1581091200,32.954492,117.398992
384,洪山区徐东村欧洲花园,1581004800,32.933071,117.329181
385,经开区淮河社区新新尚层,1581004800,32.939316,117.379507
386,经开区淮河社区阿卡碧水湾小区,1581004800,32.930415,117.374704
387,经开区淮河社区香堤荣府,1581004800,32.942664,117.392010
388,经开区湖滨社区恒大御景湾,1581004800,32.918368,117.405451
389,经开区湖滨社区湖畔花都,1581004800,32.916202,117.383870
390,经开区胜利街道大塘名门,1581004800,32.944561,117.379664
391,经开区胜利街道金融小区,1581004800,32.943102,117.384658
392,经开区胜利街道华景家园,1581004800,32.940293,117.368095
393,经开区胜利街道东航校小区25栋,1581091200,32.943331,117.378838
394,经开区长淮卫镇卫东村,1581091200,32.971152,117.500902
395,义安区钟鸣镇九榔村,1581004800,30.961439,118.137988
396,无为市牛埠镇土桥街道,1581004800,30.953992,117.862383
397,枞阳县会宫镇庆华村,1581004800,30.857714,117.277037
398,枞阳县会宫镇拔茅村,1581004800,30.828103,117.315596
399,枞阳县枞阳镇郭桥村,1581004800,30.748075,117.323706
400,枞阳县横埠镇左山村,1581004800,30.898759,117.528871
401,枞阳县横埠镇建材大市场,1581004800,30.905082,117.512555
402,枞阳县横埠镇方正村,1581004800,30.861608,117.446267
403,枞阳县横埠镇龙山村,1581004800,30.867565,117.495885
404,枞阳县浮山镇向阳村,1581004800,30.914565,117.259150
405,枞阳县浮山镇浮山村,1581004800,30.915704,117.286397
406,枞阳县白柳镇龙井村,1581004800,30.977231,117.338608
407,枞阳县藕山镇藕山村,1581004800,30.727894,117.403002
408,枞阳县铁铜乡新丰村,1581004800,30.663768,117.225926
409,枞阳县雨坛镇先锋村,1581004800,30.795442,117.164058
410,枞阳县钱铺镇将军村,1581091200,30.953291,117.490703
411,铜官区天山社区,1581004800,30.962060,117.880827
412,铜官区机厂新村,1581004800,30.924985,117.797029
413,临泉县土陂乡运河行政村,1581004800,32.781255,115.485670
414,临泉县土陂乡陈胡行政村,1581004800,32.805164,115.482852
415,临泉县城东街道姜子牙广场北,1581004800,33.064135,115.270758
416,临泉县城东街道文王社区,1581004800,33.073129,115.271946
417,临泉县城东街道港口路天祥小区西,1581004800,33.063042,115.273975
418,临泉县城东街道老百货公司家属院,1581004800,33.068716,115.283218
419,临泉县城关街道戴祖寺行政村,1581004800,33.073481,115.267234
420,临泉县城关街道王关庙村,1581004800,33.073083,115.219544
421,临泉县城关街道银泉社区,1581004800,33.075734,115.268979
422,临泉县城南街道名邦国际花都小区,1581004800,33.047687,115.287559
423,临泉县城南街道新城居委会,1581004800,33.052737,115.291208
424,临泉县城南街道新城社区,1581004800,33.048110,115.276712
425,临泉县城南街道紫薇苑小区,1581004800,33.068716,115.283218
426,临泉县姜寨镇姜寨村,1581004800,32.988490,115.001881
427,临泉县宋集镇杨小街蒲庄大队,1581004800,32.823285,115.297376
428,临泉县宋集镇铜锣湾服饰门面房二楼,1581004800,32.829398,115.287623
429,临泉县滑集镇朱集行政村,1581004800,32.753385,115.347876
430,临泉县滑集镇滑集村,1581004800,32.747553,115.397170
431,临泉县白庙镇姚集村,1581004800,33.076204,115.157346
432,临泉县白庙镇油坊村,1581004800,33.076013,115.097724
433,临泉县迎仙镇农商行家属楼,1581004800,32.926197,115.167595
434,临泉县长官镇大田行政村,1581004800,32.947373,115.295521
435,临泉县韦寨镇史寨行政村,1581004800,32.984908,115.136397
436,临泉县高塘镇牛刘行政村,1581004800,32.902955,115.381030
437,临泉县鲖城镇流鞍行政村,1581004800,33.012479,115.043260
438,临泉县鲖城镇鲖阳居委会,1581004800,33.077992,114.995183
439,临泉县迎仙镇郑寨行政村,1581091200,32.901269,115.159203
440,太和县原墙镇名利集,1581004800,33.343622,115.702744
441,太和县城关镇太和世家,1581004800,33.172311,115.631989
442,太和县城关镇锦都花园,1581004800,33.183216,115.624208
443,太和县税镇镇孙楼行政村,1581004800,33.235191,115.471153
444,太和县税镇镇税南居委会,1581004800,33.232671,115.488035
445,太和县马集乡马集村聚鑫宾馆,1581004800,33.354463,115.629749
446,界首市邴集乡赵大行政村赵寨村,1581004800,33.454391,115.405295
447,阜南县公桥乡孟寨村,1581004800,32.593204,115.526326
448,阜南县新村镇张楼村,1581004800,32.864203,115.530318
449,阜南县新村镇梁寨村,1581004800,32.904362,115.556121
450,阜南县新村镇白营村,1581004800,32.883617,115.585523
451,阜南县新村镇鑫东村,1581004800,32.873513,115.538407
452,阜南县朱寨镇闵庄村,1581004800,32.703906,115.932992
453,阜南县柴集镇柴集村,1581004800,32.818340,115.597701
454,阜南县洪河桥镇钐岗村,1581004800,32.462179,115.587454
455,阜南县王家坝镇和谐村,1581004800,32.443570,115.636142
456,阜南县王店孜乡五岳村,1581004800,32.839665,115.558475
457,阜南县王店孜乡刘郢村,1581004800,32.812323,115.520305
458,阜南县王店孜乡周集村,1581004800,32.784708,115.510884
459,阜南县王店孜乡王寨村,1581004800,32.829106,115.562057
460,阜南县王店孜乡高庄村,1581004800,32.796517,115.574973
461,阜南县经开区中央豪景小区,1581004800,32.664468,115.637017
462,阜南县苗集镇桃园村,1581004800,32.624016,115.666892
463,阜南县赵集镇刘大郢,1581004800,32.683465,115.539257
464,阜南县赵集镇刘集村,1581004800,32.715855,115.522456
465,阜南县郜台乡刘店村,1581004800,32.571532,115.870706
466,阜南县王店孜高寨村,1581177600,32.831794,115.531947
467,颍上县半岗镇黄连沟村,1581004800,32.515048,116.227923
468,颍上县夏桥镇夏桥社区,1581004800,32.650110,116.377577
469,颍上县建颍乡吴东村,1581004800,32.719061,116.158947
470,颍上县慎城镇下元东村,1581004800,32.628688,116.294115
471,颍上县新集镇六联苏庄队,1581004800,32.750279,116.137189
472,颍上县江口镇王李村,1581091200,32.810506,116.177552
473,颍东区东平社区和谐佳苑小区,1581004800,32.900218,115.862605
474,颍东区正午镇张庙村,1581004800,32.891973,115.997791
475,颍东区正午镇横山村,1581004800,32.935252,115.966881
476,颍东区正午镇田楼村,1581004800,32.927404,116.012191
477,颍东区河东街道京九新村,1581004800,32.919250,115.864230
478,颍东区袁寨镇袁寨居委会,1581004800,32.850704,115.943117
479,颍东区新华街道办事处新华街道,1581091200,32.966097,115.900430
480,颍州区三合镇新宅村,1581004800,32.838780,115.719033
481,颍州区文峰街道办事处万达社区万达华府,1581004800,32.879405,115.825011
482,颍州区文峰街道办事处三里岗社区碧桂园,1581004800,32.931618,115.824066
483,颍州区文峰街道办事处奎星社区博物馆巷,1581004800,32.899733,115.832090
484,颍州区颍西街道办事处西湖社区西城御景小区,1581004800,32.908201,115.801794
485,颍州区马寨乡马寨居委会,1581004800,32.932897,115.554429
486,颍州区鼓楼街道办事处双龙桥社区汇鑫小区,1581004800,32.905940,115.808382
487,颍州区鼓楼街道办事处白衣桥社区临泉路老师范学院院内,1581004800,32.902557,115.809609
488,颍州区清河街道办事处九里社区锦华第一郡小区,1581177600,32.870035,115.816489
489,颍州区颍西街道办事处城郊社区徽州家园小区,1581177600,32.911932,115.794996
490,颍泉区中市街道办事处中泰名城小区,1581004800,32.929897,115.816457
491,颍泉区中市街道办事处四中家属院,1581004800,32.950427,115.815292
492,颍泉区中市街道办事处海亮上府小区,1581004800,32.936503,115.815458
493,颍泉区周棚街道办事处周棚居委会,1581004800,32.997298,115.858725
494,颍泉区泉颍办事处祥和居小区,1581004800,32.953549,115.800436
495,颍泉区行流镇杨桥村,1581004800,33.091624,115.680207
496,阜阳经济技术开发区依心明园,1581091200,32.871734,115.863793
497,兰山区柳青街道,1580572800,35.133014,118.345183
498,兰山区银雀山街道,1581091200,35.071100,118.338893
499,兰山区兰山街道,1580400000,35.096058,118.321898
500,兰山区金雀山街道,1581091200,35.052320,118.357763
501,河东区九曲街道,1580400000,35.073927,118.398374
502,莒南县板泉镇,1580400000,35.133223,118.701643
503,莒南县坪山镇,1581091200,35.180764,118.841973
504,费县探沂镇,1580659200,35.209051,118.141359
505,临沭县临沭街道,1580745600,34.923087,118.668985
506,兰陵县卞庄街道,1580745600,34.866865,118.085024
507,平邑县柏林镇,1580745600,35.529689,117.773386
508,沂水县许家湖镇,1580400000,35.730072,118.629025
509,沂水县道托镇,1580832000,35.901266,118.694687
510,沂南县铜井镇,1580918400,35.612233,118.478163
511,郯城县泉源乡,1581004800,34.743564,118.445211
512,新泰市羊流镇王家林村,1580659200,36.024170,117.508439
513,新泰市幸福里小区对过原山东电缆厂宿舍10号楼,1580659200,35.921710,117.769142
514,新泰市青云街道大洼村,1580572800,35.899451,117.788236
515,高新区北集坡街道安居幸福里小区,1580572800,36.130453,117.126269
516,高新区北集坡街道龙泉小区,1580832000,36.127609,117.123376
517,东平县银山镇东茂王村,1580572800,36.081320,116.154706
518,东平县银山镇昆山村,1580572800,36.010155,116.175101
519,泰山区上高凤凰小区10号楼,1580745600,36.192107,117.169503
520,泰山区上高办事处雷诺名郡,1580832000,36.201503,117.175499
521,泰山区丽景花园小区1期6号楼,1580572800,36.203185,117.152496
522,泰山区岱庙办事处东湖小区,1580832000,36.194533,117.148247
523,泰山区岱庙办事处杏林佳苑2号楼,1580832000,36.196362,117.156574
524,泰山区岱庙街道温泉路国土资源局宿舍1号楼,1580572800,36.199836,117.157555
525,泰山区擂鼓石花园10号楼,1580832000,36.207161,117.116901
526,泰山区泰前办事处军星花园,1580832000,36.213238,117.132913
527,泰山区泰前办事处泰前西村,1580832000,36.212977,117.129062
528,泰山区泮河大街老儿童医院宿舍,1580918400,36.178628,117.116482
529,泰山区财源街道粮食局宿舍1号楼,1581177600,36.190955,117.084873
530,泰山区邱家店镇府前花园2号楼,1581177600,36.166586,117.251154
531,肥城市大封矿宿舍18号楼,1580918400,36.232004,116.759406
532,宁阳县文庙街道锦绣城1号楼,1580918400,35.774624,116.824723
533,岱岳区徂徕镇南黄崖村,1581177600,36.107039,117.349684
534,历下区趵突泉小区一区,1581091200,36.664846,117.025180
535,历下区姚家街道窑头小区,1581091200,36.659840,117.086282
536,历下区利农庄23号,1581091200,36.681253,117.055636
537,市中区中海国际社区A2区,1581091200,36.615937,116.987817
538,市中区中海国际社区C2区,1581091200,36.615893,116.986260
539,市中区二七新村南路20号,1581091200,36.636169,116.994380
540,市中区十六里河街道万寿路,1581091200,36.610591,117.004602
541,槐荫区美里新居小区三区,1581091200,36.701385,116.951039
542,槐荫区锦绣兰庭小区12号楼,1581091200,36.684893,116.918767
543,槐荫区幸福街泉城花园,1581091200,36.684187,116.949533
544,槐荫区经十路25366号舜承苑西区,1581091200,36.654385,116.955324
545,高新区黄金时代小区,1581091200,36.675858,117.137067
546,长清区崮云湖乐天小区,1581091200,36.561013,116.787519
547,历城区锦绣澜湾小区,1581091200,36.711028,117.065626
548,天桥区泺口街道河畔景苑小区,1581091200,36.723683,117.018057
549,平阴县榆山街道龙山小区,1581091200,36.280423,116.463314
550,章丘区刁镇街道办季周村,1581091200,36.940355,117.424713
551,任城区如意家园,1580659200,35.425049,116.634999
552,任城区如意嘉园,1580745600,35.423841,116.638118
553,任城区建设新村,1580918400,35.195545,116.721453
554,任城区太白国际,1581004800,35.408652,116.582306
555,兖州区奎星苑,1580659200,35.548130,116.840315
556,兖州区奎星苑小区,1580832000,35.548130,116.840315
557,兖州区颜店镇李宫一村,1580918400,35.610232,116.633002
558,高新区洸河街道市检察院宿舍,1580659200,35.428112,116.618749
559,高新区海亮公馆,1580659200,35.429396,116.657721
560,嘉祥县仲山镇仲山西村,1580745600,35.342812,116.265155
561,曲阜市鲁城街道卫生局家属院,1580745600,35.586683,117.000378
562,曲阜市小雪街道武家村,1580832000,35.506974,117.007896
563,曲阜市书院街道旧县三街,1580918400,35.607464,117.042043
564,曲阜市鲁城街道南关体育局家属院,1581177600,35.586683,117.000378
565,汶上县信合小区,1580832000,35.723865,116.499039
566,金乡县化雨镇吴海村,1580918400,34.974270,116.411607
567,博山区城东街道恒泰怡景,1580313600,36.503845,117.878628
568,博山区域城镇颜山国际,1580572800,36.500817,117.844524
569,博山区城东街道办事处青龙山鑫龙东苑,1581004800,36.511993,117.880389
570,周村区青年路办事处区交通局宿舍,1580400000,36.813838,117.873491
571,张店区马尚镇龙凤苑小区,1580572800,36.837626,118.015120
572,桓台县新城镇邢家村,1580745600,36.985080,117.941204
573,高新区石桥街道新空间花园,1580745600,36.856777,118.071031
574,高新区小寨村四宝山街道,1580745600,36.862337,118.155273
575,淄川区昆仑镇电瓷厂宿舍,1580745600,36.594539,117.925191
576,山亭区中水峪村,1580659200,35.137044,117.439113
577,山亭区青屏路千水星家具店,1581091200,35.114854,117.457095
578,峄城区濠江花园,1580486400,34.782041,117.585216
579,峄城区前湾村坛山街道,1581004800,34.788901,117.591851
580,滕州市鲍沟镇薛中村,1580313600,34.984210,117.158214
581,滕州市大坞镇大坞村,1580832000,35.123329,116.995411
582,滕州市东沙河镇党村,1580918400,35.089096,117.233202
583,薛城区临山路朝阳小区,1580313600,34.797755,117.264372
584,薛城区临城街道阳光小区,1581004800,34.798730,117.310718
585,台儿庄区涧头集镇谢庄村,1581177600,34.525823,117.545520
586,崂山区东姜外贸度假村2-西-207,1580486400,36.113527,120.541635
587,平度市经济开发区前八里庄村,1580745600,36.758915,119.996824
588,山海天旅游度假区卧龙山街道,1580659200,35.456386,119.587906
589,高新区银海熙岸小区,1581177600,37.453444,121.510234
590,城区钟家庄迎宾街建行小区,1580572800,35.484853,112.863072
591,泽州县北义城镇北义城村红星三巷,1580572800,35.644526,112.958943
592,泽州县北石店镇锦泰嘉园小区,1580659200,35.556885,112.909102
593,阳城县水村商业园B区,1580659200,35.496115,112.413120
594,陵川县崇文镇城南社区王家巷,1580572800,35.777234,113.284381
595,沁水县郑庄镇中乡村,1580659200,35.683448,112.462654
596,小店区华泰御景湾,1581004800,37.804558,112.550763
597,小店区正阳街汇泰丽城,1581004800,37.729704,112.583838
598,小店区营盘街道体育北街6号山西省政法管理干部学院宿舍,1581004800,37.843082,112.583939
599,尖草坪区汇丰街道兴华街北小区,1581004800,37.893186,112.527385
600,晋源区焦化小区,1581004800,37.767303,112.490346
601,杏花岭区巨轮街胜利桥东路省统计局宿舍,1581004800,37.883963,112.569911
602,杏花岭区胜利东街晋安3号院,1581091200,37.901216,112.584678
603,厚街镇万达广场公寓,1580572800,22.950331,113.682060
604,厚街镇世纪绿洲,1580572800,22.869811,113.667958
605,厚街镇厚街镇珊美社区兴隆路汉邦66,1581177600,22.941448,113.673427
606,厚街镇厚街镇珊美社区河田大道,1581177600,22.936632,113.667750
607,大岭山镇龙光君御华府,1580572800,22.914202,113.858334
608,大朗镇大角岭工业区,1580572800,22.929146,113.926865
609,寮步镇牛杨社区大香园,1580572800,22.958995,113.887722
610,寮步镇石龙坑龙泉二区,1580745600,22.990363,113.890415
611,常平镇木伦村中央公园,1580572800,22.988360,114.005903
612,常平镇金凯水都别墅,1580572800,22.986521,114.024434
613,松山湖工业西二路,1580572800,22.900557,113.887889
614,松山湖工业北三路保利红珊瑚,1580832000,22.969228,113.908044
615,长安镇乌沙社区金兴大厦,1580572800,22.791512,113.814411
616,长安镇新安社区园山仔路,1580572800,22.825021,113.798868
617,长安镇新安社区增田村,1580572800,22.825021,113.798868
618,长安镇沙头社区西大路,1580745600,22.785779,113.772179
619,高埗镇上江城村众兴街,1580572800,23.073374,113.749115
620,黄江镇梅塘社区中信红树山,1580659200,22.861516,113.989349
621,黄江镇田美社区板湖村富康花园,1580659200,22.922371,114.021462
622,黄江镇田美社区玉堂围村,1580572800,22.924596,114.016510
623,黄江镇宝山社区,1580572800,22.914802,114.021249
624,虎门镇博涌社区博美村,1580572800,22.836956,113.686439
625,虎门镇博涌社区柏景豪庭,1581004800,22.825825,113.690500
626,虎门镇虎门镇则徐社区风华豪庭,1581177600,22.817231,113.679105
627,东城区东泰社区东泰花园,1580659200,23.006936,113.764005
628,东城区东城区温塘社区冚下新村,1581177600,23.044519,113.840565
629,凤岗镇凤岗社区金凤路,1580745600,22.747382,114.136796
630,凤岗镇官井头村大运城邦,1580745600,22.725615,114.211294
631,凤岗镇竹塘村,1580745600,22.761802,114.149926
632,凤岗镇黄洞村田心村,1580832000,22.753216,114.171458
633,塘厦镇花园新街时代城,1580659200,22.816220,114.108870
634,塘厦镇莲湖社区科莲路,1581177600,22.832276,114.110842
635,石排镇太和社区碧水云天,1580832000,23.090125,113.945212
636,道滘镇五福里小区,1580832000,23.012890,113.688206
637,望牛墩镇朱平沙村,1581004800,23.039591,113.620561
638,东坑镇东坑镇坑美村碧桂园,1581177600,22.995625,113.970220
639,南城区袁屋边社区,1580572800,22.995316,113.723301
640,石碣镇石碣镇涌口村百悦商贸城,1581177600,23.114549,113.821248
641,莞城区创业社区塞纳河畔,1580745600,23.042991,113.750682
642,东区星光礼寓,1582041600,22.506114,113.380692
643,东升镇可逸豪苑,1582041600,22.584606,113.325716
644,东升镇丽景名筑,1582041600,22.624884,113.276524
645,坦洲镇汇翠山庄,1582041600,22.270897,113.490783
646,坦洲镇海伦堡,1582041600,22.272175,113.503707
647,坦洲镇锦绣阳光花园,1582041600,22.284312,113.472071
648,石岐区富豪山庄,1582041600,22.532547,113.401969
649,石岐区长虹蓝湾半岛,1582041600,22.561777,113.397997
650,石岐区利和豪庭,1582041600,22.508878,113.370083
651,石岐区民安街,1580486400,22.522262,113.399023
652,黄圃镇半山豪苑,1582041600,22.721946,113.353353
653,黄圃镇御品泰景,1582041600,22.728331,113.338701
654,黄圃镇大岑工业区,1582041600,22.753732,113.343748
655,黄圃镇奥城花园,1582041600,22.708488,113.358457
656,黄圃镇蓝天金地花园,1582041600,22.727301,113.342604
657,黄圃镇大岑村雪莱路外工村,1582041600,22.755812,113.349286
658,三角镇乌沙村,1580745600,22.684099,113.399745
659,三角镇乌沙村三角镇乌沙村,1580659200,22.684099,113.399745
660,开发区联富社区,1580745600,22.543181,113.435464
661,板芙镇雅芙花园,1580659200,22.419529,113.333674
662,火炬开发区伯爵山,1582041600,22.553019,113.463640
663,火炬开发区健康花城,1582041600,22.551541,113.486182
664,火炬开发区凯茵新城,1582041600,22.514118,113.468122
665,火炬开发区联富社区,1582041600,22.543181,113.435464
666,火炬开发区逸骏华庭,1582041600,22.568194,113.494995
667,火炬开发区濠泗下街,1580918400,22.553163,113.492361
668,民众镇多宝村,1581004800,22.627524,113.500093
669,三乡镇观景大道亚秀街,1582041600,22.363793,113.447978
670,三乡镇金涌大道雅居乐万象郡,1580659200,22.340072,113.466381
671,三乡镇鹤泉山庄,1580918400,22.320960,113.483184
672,沙溪镇水岸街水岸花都,1580918400,22.534751,113.326124
673,东凤镇东御世家,1580918400,22.703657,113.263571
674,东凤镇佛澳阳光花园,1580400000,22.693517,113.271938
675,东凤镇西罟村,1581004800,22.648140,113.317130
676,横栏镇阳光花园,1580659200,22.581660,113.235602
677,西区广浩华庭,1580659200,22.567500,113.346994
678,阜沙镇阜港西路赢天阁,1580659200,22.675078,113.353866
679,三水区云东海街道林海尚都,1580400000,23.188876,112.889805
680,三水区云东海街道雅湖半岛,1580400000,23.176653,112.915121
681,三水区西南街道博雅滨江,1580400000,23.166472,112.882440
682,三水区西南街道恒达花园,1580745600,23.181464,112.899980
683,三水区大塘镇开元路8号山龙纺织染厂宿舍,1581091200,23.455445,112.950579
684,南海区大沥镇盐步隔海市场,1580400000,23.104269,113.176448
685,南海区大沥镇维京酒店,1580400000,23.118717,113.201122
686,南海区大沥镇黄岐万科四季花城,1580400000,23.158604,113.190423
687,南海区桂城街道中海千灯湖1号,1580400000,23.070081,113.149731
688,南海区桂城街道保利叶公馆,1580400000,23.052083,113.162474
689,南海区桂城街道夏南二大街,1580400000,23.062625,113.186328
690,南海区桂城街道怡翠玫瑰园,1580400000,23.016387,113.151413
691,南海区桂城街道景裕豪园,1580400000,23.071240,113.143845
692,南海区狮山镇罗村力迅城筑,1580400000,23.079422,113.057128
693,南海区西樵镇三胜颐景园,1580400000,22.973995,112.984691
694,南海区西樵镇西岸社区碧桂园,1580400000,22.877914,112.848149
695,南海区里水镇维也纳酒店,1580400000,23.230871,113.089884
696,南海区里水镇金沙洲恒大御景半岛,1580400000,23.182489,113.216673
697,南海区怡翠馨园,1580745600,23.033919,113.176717
698,南海区九江沙头城区裕和公寓,1580745600,23.035028,113.149226
699,南海区桂城丽雅苑,1580745600,23.057176,113.144164
700,南海区里水镇沙涌环村南路十巷,1580918400,23.147813,113.169547
701,南海区狮山镇兴贤村委会上北村,1581091200,23.066001,113.097712
702,南海区里水镇恒大御景半岛,1581091200,23.182489,113.216673
703,禅城区南庄镇万科城,1580400000,22.976540,113.005699
704,禅城区张槎街道保利香槟花园,1580400000,23.038766,113.088764
705,禅城区石湾镇街道依云上城,1580400000,22.998449,113.157367
706,禅城区石湾镇街道碧桂园城市花园,1580400000,22.987728,113.130657
707,禅城区祖庙街道同华西二路,1580659200,23.019923,113.116769
708,禅城区祖庙街道旭辉公元,1580400000,23.054059,113.116797
709,禅城区石湾镇街道怡景丽苑,1580918400,22.992679,113.144048
710,禅城区魁奇二路139号依云上城,1581091200,22.998940,113.157377
711,顺德区乐从镇保利拉菲,1580400000,22.955789,113.087589
712,顺德区乐从镇御庭沣酒店,1580400000,22.964226,113.095817
713,顺德区北滘镇深业城,1580400000,22.925826,113.224899
714,顺德区北滘镇碧桂西苑听涛居,1580400000,22.943624,113.276065
715,顺德区北滘镇美的悦公馆,1580400000,22.943685,113.211383
716,顺德区大良街道汇城华庭,1580486400,22.827591,113.259810
717,顺德区容桂街道扁滘柏悦湾,1580572800,22.768276,113.265119
718,顺德区容桂街道晖胜尚轩,1580400000,22.754656,113.284393
719,顺德区容桂街道龙光尚街大厦,1580400000,22.760754,113.275525
720,顺德区龙江镇龙山南湖雅园,1580572800,22.853944,113.036353
721,顺德区伦教街道中海万锦公馆,1580832000,22.868873,113.212932
722,顺德区乐从镇沙滘北村聚星里大街,1580918400,22.947787,113.085728
723,顺德区容桂街道振华康富花园,1580918400,22.769804,113.279360
724,从化区城郊街新雍丽酒店,1580572800,23.561166,113.584218
725,南沙区南沙街坦头村槽船一街,1580572800,22.811981,113.571396
726,南沙区叠翠峰,1580572800,22.803129,113.526959
727,南沙区榄核镇蔡源东街,1580572800,22.843977,113.349489
728,南沙区碧桂园天玺湾小区,1580572800,22.804582,113.584249
729,南沙区黄阁镇万科南方公元,1580572800,22.811497,113.508144
730,南沙区黄阁镇璧珑湾,1580745600,22.806246,113.536279
731,增城区新塘镇太平洋花园,1580572800,23.122838,113.584587
732,增城区新塘镇尚东阳光,1580572800,23.108839,113.581813
733,增城区新塘镇翡翠绿洲,1580572800,23.144074,113.568190
734,增城区新塘镇西洲村,1580572800,23.106919,113.587791
735,增城区新塘镇西洲村豪门公寓,1580572800,23.125925,113.617586
736,增城区荔城街中海城市广场,1580572800,23.291830,113.831273
737,增城区新塘镇大墩村,1580745600,23.131437,113.674764
738,增城区新塘镇富丽园二街,1580832000,23.122406,113.625075
739,增城区增江街道碧桂园,1580918400,23.137179,113.582758
740,增城区增江街道碧桂园荔园,1581004800,23.281798,113.851850
741,天河区体育西小区,1580572800,23.136110,113.331641
742,天河区兴华街沙太南路,1580572800,23.168578,113.329475
743,天河区冼村街道华明路,1580572800,23.127950,113.329011
744,天河区冼村街道潭村路珠光御景,1580572800,23.123424,113.355546
745,天河区冼村街道珠光新城御景二期,1580572800,23.122039,113.354908
746,天河区冼村街道马场路富力花园,1580572800,23.119183,113.349956
747,天河区凤凰街道渔兴路,1580572800,23.211962,113.382164
748,天河区前进街盈彩美居街彩轩,1580572800,23.120623,113.424667
749,天河区合景路,1580572800,23.162018,113.414911
750,天河区天河新作,1580572800,23.141321,113.339042
751,天河区新塘街华观路云城米酷,1580572800,23.174553,113.391553
752,天河区棠下荷光广州锦顺酒店,1580572800,23.137547,113.381645
753,天河区棠下街华景新城陶然庭苑,1580572800,23.143718,113.367912
754,天河区棠下街枫叶路棠雅苑,1580572800,23.140600,113.374461
755,天河区棠下街道棠石路新景苑小区,1580572800,23.130317,113.375921
756,天河区海景花园,1580572800,23.129238,113.373147
757,天河区猎德街猎德复建房,1580572800,23.119319,113.341828
758,天河区石牌街暨南大学羊城苑,1580572800,23.136881,113.353945
759,天河区车陂街林南文化酒店,1580572800,23.130561,113.403241
760,天河区兴华街道粤垦路金燕花苑,1580745600,23.158969,113.339959
761,天河区冼村街道珠光新城御景,1580832000,23.121837,113.353352
762,天河区中南街道南丫村,1580572800,23.050296,113.233978
763,天河区棠下街道锦顺酒店,1581004800,23.137547,113.381645
764,天河区车陂街道城市假日园,1581004800,23.132248,113.410283
765,天河区兴华街道沙太南路,1581091200,23.169110,113.330027
766,海珠区凤阳街道和平家园,1580572800,23.092611,113.321219
767,海珠区南华西街道同福西路,1580572800,23.108876,113.260800
768,海珠区南石头街道保利花园,1580659200,23.077236,113.280303
769,海珠区南石头街鸡春岗新街,1580572800,23.089188,113.323741
770,海珠区小港路涌边东九巷,1580572800,23.089188,113.323741
771,海珠区新港街国际轻纺城双子星城星辰轩,1580572800,23.096708,113.305215
772,海珠区江海街石榴岗路,1580659200,23.093477,113.343480
773,海珠区沙园街昌岗中路,1580572800,23.089188,113.323741
774,海珠区瑞宝街金恒路,1580572800,23.089188,113.323741
775,海珠区赤岗街新港中路影城花园,1580572800,23.101587,113.325276
776,海珠区锦江之星,1580572800,23.086231,113.285081
777,海珠区革新路船舶太古酒店,1580572800,23.095654,113.261223
778,海珠区龙凤街道金沙路富力现代,1580659200,23.097014,113.264697
779,海珠区江悦酒店,1580745600,23.108774,113.253312
780,海珠区江海街道大塘东边街,1580745600,23.090448,113.337816
781,海珠区滨江街道沙地直街,1580745600,23.114720,113.288955
782,海珠区琶洲街道琶洲新村,1580745600,23.106607,113.388269
783,海珠区赤岗街石榴岗路,1580745600,23.093477,113.343480
784,海珠区赤岗街道纵横公寓,1580745600,23.101417,113.336643
785,海珠区琶洲街道保利天悦,1580832000,23.108763,113.386064
786,海珠区瑞宝街道金碧花园,1580832000,23.075321,113.293534
787,海珠区龙凤街道凤凰二街,1580832000,23.097862,113.265297
788,海珠区南华西街道万科华庭,1580918400,23.109236,113.259682
789,海珠区昌岗街道细岗路,1580918400,23.098281,113.287239
790,海珠区昌岗街道金盛大厦,1580918400,23.096652,113.281665
791,海珠区江南中街道南村聚源八巷,1580918400,23.110942,113.274475
792,海珠区龙凤街道江南乐居苑,1580918400,23.101511,113.267218
793,海珠区华洲街道土华洪福新村,1581004800,23.076076,113.365049
794,海珠区赤岗街道影城花苑,1581004800,23.101587,113.325276
795,海珠区凤阳街道泰沙路马岗顶,1581091200,23.086483,113.291370
796,海珠区南洲街道上冲桥南新街,1581091200,23.086424,113.329249
797,海珠区新港街道中大浦园,1581091200,23.106287,113.301740
798,海珠区琶洲街道阅江路,1581091200,23.113499,113.345764
799,海珠区瑞宝街道瑞源街二十巷,1581091200,23.084897,113.301218
800,海珠区龙凤街道革新路银山尚橙小区,1581091200,23.100565,113.260131
801,海珠区江南中街道前进路聚龙新街,1581177600,23.104290,113.285364
802,海珠区琶洲街道阅江中路保利天悦,1581177600,23.108763,113.386064
803,番禺区南村镇雅居乐北苑,1580659200,23.031416,113.389804
804,番禺区名伦花园,1580572800,23.017042,113.336389
805,番禺区大龙街尚东尚筑,1580572800,22.944537,113.411280
806,番禺区市桥街道维也纳石桥中心店,1580572800,22.947093,113.372910
807,番禺区星河湾半岛,1580572800,23.036142,113.359252
808,番禺区石楼镇亚运城媒体村,1580572800,22.950098,113.480227
809,番禺区碧桂园东苑倚翠路,1580572800,22.958925,113.292785
810,番禺区祈福新村祈福名都,1580572800,22.978136,113.341016
811,番禺区金山谷花园,1580572800,22.983274,113.353537
812,番禺区桥南街道陈涌村,1580745600,22.924696,113.378569
813,番禺区甘棠村东环街大社坊中心街,1580572800,22.963925,113.384588
814,番禺区市桥街丽柏酒店,1580572800,22.952135,113.375450
815,番禺区钟村街道祈福缤纷汇,1580832000,22.976131,113.340032
816,番禺区大龙街道东湖洲花园,1581004800,22.933898,113.424727
817,番禺区未来域,1581004800,22.983923,113.317610
818,番禺区沙湾街道荷景一区,1581004800,22.908971,113.351362
819,番禺区祈福新村活力花园,1581004800,22.975438,113.335517
820,番禺区钟村街道鸿福路,1581177600,22.973637,113.340974
821,白云区人和镇清河渡头街,1580572800,23.340525,113.302074
822,白云区人和镇西成路蔚徕酒店,1580572800,23.425709,113.378717
823,白云区保利西海岸江海花园,1580572800,23.176796,113.216914
824,白云区元邦航空家园,1580572800,23.211085,113.265622
825,白云区南湖高尔夫公寓,1580572800,23.164238,113.279673
826,白云区南航明珠酒店,1580572800,23.378154,113.303855
827,白云区同景东街,1580572800,23.161688,113.240647
828,白云区心谊路,1580572800,23.177017,113.262489
829,白云区时代玫瑰园,1580572800,23.231128,113.293230
830,白云区景云路景云居,1580659200,23.170077,113.283817
831,白云区梅滨大厦,1580572800,23.185694,113.332191
832,白云区棠景街国强北街,1580572800,23.164238,113.279673
833,白云区棠景街道岗贝路贝丽花园,1580572800,23.185836,113.261200
834,白云区江高镇大田村海口直街,1580572800,23.276500,113.213056
835,白云区石井街道石潭路,1580572800,23.201300,113.241378
836,白云区金沙洲保利西子湾,1580572800,23.153819,113.217213
837,白云区鹤龙街联边彭西一街,1580572800,23.236901,113.282721
838,白云区鹤龙街道乐得花园,1580572800,23.228939,113.281730
839,白云区鹤龙街道黄边安怀里,1580572800,23.220942,113.277211
840,白云区麒麟新村三街二巷,1580572800,23.192028,113.343588
841,白云区黄石花园,1580572800,23.210679,113.273660
842,白云区黄石街二街,1580659200,23.164238,113.279673
843,白云区黄石街白云尚城,1580572800,23.219749,113.291640
844,白云区三元里街道棠下三官后街,1580745600,23.179359,113.259690
845,白云区京溪街道广州大道北,1580745600,23.187460,113.328159
846,白云区永平街道永泰中街,1580745600,23.192506,113.272468
847,白云区棠景街道乐嘉路,1580832000,23.174122,113.263981
848,白云区江夏流铁岗,1580832000,23.218860,113.285038
849,白云区石井街道玖兴公寓,1580832000,23.188003,113.243044
850,白云区同德街道同嘉路,1580918400,23.165293,113.239357
851,白云区金沙街道金沙洲中海金洲馨园,1581004800,23.153224,113.211837
852,白云区鹤龙街道联边彭西一街,1581004800,23.236901,113.282721
853,白云区同和街道石桥七巷,1581091200,23.203053,113.332398
854,白云区同和街道同沙路云东小区,1581177600,23.201876,113.333866
855,白云区同德街道西槎路同景东街,1581177600,23.161688,113.240647
856,花都区新华街宾馆新村,1580572800,23.387944,113.217607
857,花都区新华街锦尚蓬莱,1580572800,23.396494,113.243466
858,花都区新雅街道合和新城锦华,1580572800,23.378994,113.262661
859,花都区狮岭镇合成村,1580572800,23.460768,113.187902
860,花都区秀全街雅宝新城英伦世家,1580572800,23.432715,113.192755
861,花都区自由人花园2期,1580572800,23.348515,113.226622
862,花都区花城街道南航花园,1580572800,23.407823,113.238865
863,花都区花城街道长岗村,1580572800,23.329759,113.264985
864,花都区新华街道景雅轩小区,1580745600,23.403858,113.212422
865,花都区合和新城,1581004800,23.378994,113.262661
866,花都区沙芒南5巷,1581004800,23.409571,113.226834
867,花都区新华街道建设北路,1581091200,23.411216,113.213538
868,荔湾区中海花湾,1580572800,23.074103,113.243121
869,荔湾区华林街道光复中路丽枫酒店长寿东路店,1580572800,23.124246,113.258098
870,荔湾区华林街道文昌南路,1580572800,23.121141,113.251028
871,荔湾区石围塘街凯粤湾,1580572800,23.121311,113.221258
872,荔湾区金花街道芦荻街,1580572800,23.133654,113.257940
873,荔湾区多宝街道御景壹号,1580832000,23.115306,113.242111
874,荔湾区花地街道恒荔湾畔,1580832000,23.107036,113.238534
875,荔湾区石围塘街道兴东路,1580918400,23.114266,113.222559
876,荔湾区金花街道龙津中路,1581004800,23.130174,113.250103
877,越秀区人民街道万艺维福顿公寓,1580659200,23.121893,113.273719
878,越秀区农林下路,1580572800,23.135174,113.303838
879,越秀区梅花村街金羊花园,1580572800,23.132748,113.315827
880,越秀区水均岗,1580572800,23.137665,113.312566
881,越秀区水荫路,1580572800,23.151077,113.317088
882,越秀区淘金东路御龙庭,1580572800,23.148903,113.301762
883,越秀区淘金路,1580572800,23.145270,113.294019
884,越秀区黄花岗街东风东路,1580572800,23.135268,113.273227
885,越秀区人民街道回龙路,1580745600,23.122248,113.274039
886,越秀区侨光路万艺广场,1580572800,23.122316,113.273788
887,越秀区光塔街解放中路,1580745600,23.127683,113.268868
888,越秀区大东街道东川路,1580745600,23.130866,113.293029
889,越秀区梅花村街道共和大街,1580745600,23.130899,113.314072
890,越秀区流花街道,1580745600,23.154300,113.269339
891,越秀区人民街道大新路小新街,1580918400,23.122584,113.267547
892,越秀区流花街道武汉宾馆,1580918400,23.152168,113.260531
893,越秀区人民街道大新路,1581004800,23.121110,113.260614
894,越秀区北京街道起义路,1581004800,23.127848,113.273229
895,越秀区登峰街道下塘宝汉直街,1581004800,23.148125,113.281317
896,黄埔区云埔街万科金色梦想,1580572800,23.169508,113.536221
897,黄埔区云埔街道中海誉城,1580572800,23.168263,113.532736
898,黄埔区南岗街广海路亨元花园,1580572800,23.100936,113.541958
899,黄埔区夏港街蓝玉五街,1580572800,23.187234,113.487220
900,黄埔区大沙街丰乐北路君和名城,1580572800,23.113626,113.460255
901,黄埔区联和街保利林语山庄芳林二街,1580572800,23.187836,113.461236
902,黄埔区金碧世纪花园,1580572800,23.119982,113.435684
903,黄埔区龙湖街万科幸福誉,1580572800,23.336886,113.548136
904,黄埔区云埔街道东荟城,1580832000,23.165282,113.510054
905,黄埔区联和街道岭南山畔,1580832000,23.183244,113.458270
906,黄埔区云埔街道万科金色梦想,1581004800,23.169508,113.536221
907,兴宁市新陂镇三新村,1580572800,24.162520,115.681909
908,兴宁市新陂镇圩镇,1580572800,24.161266,115.703273
909,兴宁市水口镇光夏村,1580400000,23.983727,115.953179
910,兴宁市罗浮镇蕉坑村,1580400000,24.603545,115.582070
911,兴宁市黄槐镇西二村,1580832000,24.460783,115.772374
912,兴宁市坭陂镇理中村,1581091200,24.083553,115.859610
913,大埔县高陂镇桃花村,1580400000,24.150139,116.583471
914,平远县大柘镇河岭村,1580486400,24.598120,115.913554
915,梅县区梅县碧桂园,1580400000,24.272630,116.069987
916,梅县区梅州西站高铁站公寓,1580400000,24.282784,116.092418
917,蕉岭县新铺镇中心街,1580400000,24.523069,116.141790
918,蕉岭县新铺镇同福村,1580400000,24.537680,116.130859
919,梅江区金山街道办赤岌二路烟厂宿舍,1580659200,24.318803,116.139533
920,陆丰市东海镇金华花园,1580486400,22.952096,115.632835
921,陆丰市东海镇,1580659200,22.947293,115.646734
922,陆河县新田镇,1580486400,23.191660,115.566302
923,北新区海逸城邦,1580400000,22.632495,113.086085
924,鹤山市雅瑶镇龙翔花园,1580486400,22.729615,113.003970
925,鹤山市沙坪街道保利花园,1581004800,22.787219,112.987044
926,开平市金鸡镇,1580659200,22.163821,112.495828
927,新会区大鳌镇东升村西宁里289号,1580745600,22.491721,113.218832
928,新会区大鳌镇东升村,1581004800,22.491721,113.218832
929,江海区江海一路2号,1580400000,22.580233,113.106771
930,江海区海逸华庭逸峰轩,1580832000,22.601635,113.170874
931,江海区礼乐街道礼乐三路乐陶苑,1581091200,22.539208,113.092300
932,蓬江区环市街道星汇名庭天璇2栋,1580832000,22.596231,113.086043
933,蓬江区棠下镇建棠路达进豪庭,1581004800,22.684529,113.033095
934,光明区公明街道振明路南庄合众豪庭后面三巷,1580400000,22.779393,113.914340
935,光明区宏发上域,1580659200,22.787727,113.913601
936,光明区新陂头村新美一村,1580659200,22.802398,113.958913
937,光明区薯田埔村福南路华业苑,1580659200,22.785984,113.881135
938,光明区传麒山,1580745600,22.749311,113.949427
939,光明区横岭新村,1580918400,22.784660,113.890143
940,光明区玉律村一区,1581004800,22.721592,113.896696
941,南山区中洲万豪酒店,1580400000,22.523105,113.939821
942,南山区丽山路西湖林语,1580400000,22.598651,113.971876
943,南山区佳兆业前海广场,1580572800,22.500859,113.892726
944,南山区半岛城邦,1580400000,22.485845,113.940075
945,南山区华侨城香山美墅,1580400000,22.556723,113.976295
946,南山区南头街道麒麟花园,1580400000,22.550425,113.937095
947,南山区南山街道友邻公寓,1580400000,22.537024,113.936241
948,南山区南山街道学府花园,1580659200,22.531526,113.932802
949,南山区南山街道现代城华庭,1580400000,22.522824,113.930954
950,南山区南山街道阳光棕榈园,1580400000,22.531969,113.920236
951,南山区后海雅园,1580572800,22.499188,113.942623
952,南山区大冲宿禾服务式公寓,1580400000,22.547406,113.958648
953,南山区宝能太古城北区,1580400000,22.506848,113.946556
954,南山区桑泰丹华府三期,1580572800,22.593393,113.972543
955,南山区沙河街道华侨城东组团小区,1580659200,22.543233,113.988041
956,南山区沙河街道沙河东路世纪村,1580400000,22.539469,113.972148
957,南山区海岸明珠,1580400000,22.521240,113.938066
958,南山区白石洲新堂花园,1580659200,22.553020,113.977659
959,南山区科技园华润城,1580400000,22.546494,113.960323
960,南山区蓝月湾畔,1580400000,22.509398,113.942139
961,南山区蔚蓝海岸,1580400000,22.513718,113.941799
962,南山区蛇口街道东角头港湾花园,1580400000,22.492550,113.941269
963,南山区蛇口街道四海公寓,1580400000,22.499809,113.938025
964,南山区蛇口街道海境界,1580400000,22.498078,113.943281
965,南山区蛇口街道豪方泽公寓,1580659200,22.493948,113.933566
966,南山区西丽街道德意名居,1580400000,22.596473,113.968371
967,南山区西丽阳光工业区,1580400000,22.638857,113.939923
968,南山区西海湾花园,1580572800,22.519935,113.937225
969,南山区锦绣花园,1580400000,22.540606,113.985104
970,南山区阳光华艺大厦B座,1580572800,22.530595,113.934957
971,南山区雍景轩赏湖阁,1580572800,22.500292,113.934034
972,南山区登良花园,1580745600,22.519653,113.926740
973,南山区白石洲东四坊,1580745600,22.538109,113.977007
974,南山区南光花园,1580832000,22.524827,113.930617
975,南山区大冲新城花园,1580832000,22.548278,113.957355
976,南山区恒立心海湾花园,1580832000,22.507211,113.901601
977,南山区东方花园,1580918400,22.538753,113.986146
978,南山区海景嘉途酒店,1580918400,22.540872,113.993017
979,南山区海淮路海天一路交汇工地生活区,1580918400,22.530213,113.950837
980,南山区诺德假日花园,1580918400,22.516379,113.910790
981,南山区雷公岭村,1580918400,22.497996,113.933539
982,南山区东滨路4096号鸿丰大酒店,1580400000,22.518197,113.918766
983,南山区万科云城一期,1581004800,22.578853,113.947865
984,南山区大磡1村,1581004800,22.628199,113.982299
985,南山区水木丹华,1581004800,22.597913,113.995819
986,南山区留仙大道4088号博林天瑞1期西北方向80米,1580659200,22.589583,113.978535
987,南山区天鹅湖花园,1581091200,22.553258,113.989431
988,南山区留仙居南A区,1581091200,22.589277,113.955378
989,南山区招商街道沿山路63号,1581091200,22.505710,113.925862
990,南山区水木华庭,1581091200,22.568635,113.986708
991,南山区西丽塘朗城,1581091200,22.581938,113.958771
992,南山区西丽镇沙河西路3268号(西丽地铁站C出口),1581004800,22.584556,113.961155
993,坪山区坪山街道万科金域缇香,1580400000,22.713999,114.348064
994,坪山区坪山街道易林源酒店,1580400000,22.697101,114.352780
995,坪山区龙田街道东城大厦维也纳酒店,1580400000,22.720887,114.400867
996,坪山区龙田街道金茂园酒店,1580400000,22.706895,114.362972
997,坪山区东纵路6-3号,1580832000,22.695144,114.382283
998,大鹏新区万豪酒店,1580400000,22.766341,113.865468
999,宝安区万象新天2期,1580572800,22.609446,113.857373
1000,宝安区前海铂寓,1580400000,22.561145,113.868721
1001,宝安区宏发世纪城,1580659200,22.684655,113.952594
1002,宝安区宝安大道与裕安一路交汇处卡罗社区,1580400000,22.567958,113.894991
1003,宝安区新安街道35小区安乐花园,1580400000,22.587884,113.904511
1004,宝安区新安街道甲岸村,1580659200,22.567774,113.910602
1005,宝安区星曜名城B栋,1580659200,22.697864,113.927776
1006,宝安区松岗街道碧头社区华都公寓,1580400000,22.787926,113.819552
1007,宝安区桃源居,1580400000,22.620748,113.870869
1008,宝安区泰华商业城,1580659200,22.574331,113.910594
1009,宝安区满京华云著花园,1580659200,22.790140,113.839204
1010,宝安区石岩街道伊隆达工业园,1580400000,22.699209,113.948665
1011,宝安区福永街道星航华府,1580400000,22.649205,113.838956
1012,宝安区航城街道南航明珠花园,1580400000,22.611639,113.848863
1013,宝安区塘尾社区蚝二佳仕泰科技园宿舍,1580745600,22.709154,113.790754
1014,宝安区松茂·御龙湾,1580745600,22.579976,113.859788
1015,宝安区海华社区自由北小区,1580745600,22.574479,113.889429
1016,宝安区深航幸福花园,1580745600,22.704932,113.818553
1017,宝安区灵芝新村新安街道,1580832000,22.571257,113.915651
1018,宝安区西乡街道我们家公寓（海湾家2号楼）,1580400000,22.585866,113.866034
1019,宝安区明玉路11号花样年花郡,1580400000,22.570810,113.888787
1020,宝安区荣泰园,1580918400,22.730275,113.829770
1021,宝安区一尚领航优品酒店,1581004800,22.620591,113.847874
1022,宝安区松新石岗大楼,1581004800,22.772444,113.846998
1023,宝安区福中福幸福海岸,1581004800,22.566072,113.884934
1024,宝安区鸿景园,1581004800,22.580692,113.897127
1025,宝安区怀德公元,1581091200,22.675303,113.834030
1026,宝安区永丰社区六区,1581091200,22.578807,113.873350
1027,宝安区金港华庭,1581091200,22.588435,113.867800
1028,盐田区沙头角街道上东湾,1580400000,22.556013,114.235368
1029,福田区上步中路盛夏公寓,1580659200,22.553884,114.101837
1030,福田区上沙东村八巷,1580659200,22.527123,114.039070
1031,福田区侨香村,1580400000,22.558903,114.019670
1032,福田区八卦四路意馨居,1580572800,22.570847,114.107648
1033,福田区华强北街道航苑大厦西座,1580400000,22.549955,114.089510
1034,福田区南园街道南园路232号工行公寓,1580400000,22.544177,114.094270
1035,福田区园岭新村,1580400000,22.560089,114.107128
1036,福田区新洲四街香江西苑,1580659200,22.529423,114.048077
1037,福田区景田天健花园,1580572800,22.562903,114.040278
1038,福田区梅东三路半山御景,1580400000,22.578573,114.077172
1039,福田区沙嘴村一坊,1580400000,22.524176,114.044513
1040,福田区益田花园,1580659200,22.518767,114.064065
1041,福田区益田花园豪园居,1580400000,22.520433,114.063598
1042,福田区碧华庭居翠园,1580400000,22.569340,114.055870
1043,福田区福保街道明月花园,1580400000,22.530085,114.061769
1044,福田区福保街道红树福苑,1580400000,22.515346,114.052042
1045,福田区福华新村,1580400000,22.539252,114.077673
1046,福田区福华路维也纳酒店,1580572800,22.532454,114.070923
1047,福田区福港路西阳光城市,1580400000,22.528902,114.077309
1048,福田区竹子林越海家园依山阁,1580400000,22.541508,114.013201
1049,福田区笔架山公园员工宿舍,1580659200,22.570330,114.088411
1050,福田区莲花北村,1580659200,22.564518,114.057249
1051,福田区莲花街道景蜜村,1580400000,22.560981,114.045045
1052,福田区莲花街道福莲花园,1580400000,22.551447,114.076065
1053,福田区越众小区,1580400000,22.542792,114.018535
1054,福田区香蜜新村东区,1580400000,22.553179,114.046951
1055,福田区益田村,1580745600,22.520020,114.057847
1056,福田区下梅林河背村,1580832000,22.569828,114.049461
1057,福田区东海国际公寓,1580832000,22.542815,114.025947
1058,福田区园中花园,1580832000,22.558361,114.105301
1059,福田区新世界伟瑞酒店,1580745600,22.571525,114.059662
1060,福田区景田北景龙大厦,1580745600,22.563861,114.051101
1061,福田区梅林街道兰江山第,1580745600,22.571202,114.020095
1062,福田区福滨新村,1580745600,22.536539,114.085565
1063,福田区福祥街2号1栋,1580745600,22.538177,114.089684
1064,福田区香山美树苑,1580832000,22.546495,114.020991
1065,福田区御锦公馆,1580918400,22.576507,114.064630
1066,福田区香格里拉大酒店,1580918400,22.541880,114.063578
1067,福田区下沙村四坊,1581004800,22.533971,114.029979
1068,福田区新洲花园,1581004800,22.532655,114.054815
1069,福田区金地香蜜山,1581004800,22.560111,114.024337
1070,福田区梅林山水居,1581091200,22.576567,114.050034
1071,福田区新洲牌坊街雅庭精品酒店,1581091200,22.532052,114.052544
1072,罗湖区中兴路88号汉庭酒店,1580659200,22.556142,114.132756
1073,罗湖区田贝二路金翠园,1580400000,22.567329,114.135232
1074,罗湖区红桂路红桂一街50号环保大院,1580400000,22.555517,114.111990
1075,罗湖区罗湖村五坊,1580400000,22.542122,114.127706
1076,罗湖区长城大酒店,1580400000,22.556406,114.113257
1077,罗湖区合正荣悦府,1580745600,22.559066,114.136195
1078,罗湖区大望社区新田村,1580745600,22.604480,114.182074
1079,罗湖区梧桐山社区赤水洞村,1580745600,22.596070,114.194471
1080,罗湖区泥岗西路自来水公司大院,1580745600,22.573623,114.108161
1081,罗湖区百仕达花园5期,1580745600,22.573727,114.148555
1082,罗湖区翠华花园,1580745600,22.561951,114.138835
1083,罗湖区海鹰大厦,1580832000,22.587417,114.144279
1084,罗湖区鸿翔花园,1580832000,22.560129,114.113040
1085,罗湖区东方颐园,1581004800,22.555962,114.132799
1086,罗湖区天景花园,1581004800,22.566050,114.147827
1087,罗湖区松园北街38号大院,1581091200,22.559891,114.113980
1088,罗湖区海陇华苑,1581091200,22.553125,114.138964
1089,龙华区华业玫瑰四季2期,1580400000,22.630737,114.026726
1090,龙华区南国丽园,1580659200,22.659714,114.036671
1091,龙华区星河丹堤,1580659200,22.599672,114.064959
1092,龙华区春华四季园,1580572800,22.626738,114.058494
1093,龙华区民治街道丰泽湖山庄,1580400000,22.599895,114.061050
1094,龙华区民治街道梅龙苑,1580400000,22.650705,114.042781
1095,龙华区民治街道翔龙御庭,1580400000,22.643067,114.014823
1096,龙华区民治街道金地梅陇镇,1580400000,22.636309,114.038702
1097,龙华区观湖街道懿花园,1580400000,22.698747,114.070170
1098,龙华区观湖街道招商观园,1580400000,22.696330,114.067331
1099,龙华区观澜湖高尔夫大宅昆士顿区,1580400000,22.728523,114.082785
1100,龙华区观澜街道华盛峰荟名庭2期,1580400000,22.717548,114.049019
1101,龙华区金地上塘道1期,1580400000,22.639788,114.028355
1102,龙华区龙华圆酒店,1580400000,22.644870,114.057156
1103,龙华区龙华街道新华苑2期,1580400000,22.660993,114.042988
1104,龙华区观澜街道库坑中心区,1580745600,22.741670,114.042077
1105,龙华区民治街道锦绣江南,1580832000,22.641309,114.032986
1106,龙华区观湖街道观壹城,1580832000,22.721992,114.075633
1107,龙岗区中央悦城,1580572800,22.738530,114.248902
1108,龙岗区中海康城,1580400000,22.713179,114.212953
1109,龙岗区华创云轩B座,1580572800,22.656880,114.072303
1110,龙岗区华浩源,1580400000,22.630578,114.131773
1111,龙岗区华策中心城,1580659200,22.707608,114.250462
1112,龙岗区嘉霖·龙禧（龙禧雅苑）,1580400000,22.745576,114.250048
1113,龙岗区回龙埔万科翰邻城,1580572800,22.736198,114.236584
1114,龙岗区坂田街道荔园新村,1580400000,22.642484,114.077777
1115,龙岗区大族河山,1580572800,22.618417,114.163583
1116,龙岗区布吉慢城,1580659200,22.631314,114.134125
1117,龙岗区布吉新三村,1580659200,22.613888,114.125279
1118,龙岗区布吉街道百合山庄,1580400000,22.600827,114.126522
1119,龙岗区布澜路尚峰花园,1580400000,22.629769,114.144464
1120,龙岗区平湖特力商厦,1580400000,22.704819,114.138434
1121,龙岗区秀丽山庄,1580572800,22.617934,114.114379
1122,龙岗区西环路八约1街龙富花园,1580659200,22.613598,114.115365
1123,龙岗区金龙豪庭B栋,1580659200,22.623616,114.153342
1124,龙岗区龙城街道万象天成,1580400000,22.730000,114.260867
1125,龙岗区龙城街道东方沁园,1580400000,22.732221,114.231250
1126,龙岗区龙岗街道宝能悦澜山,1580400000,22.741008,114.257478
1127,龙岗区中骏四季阳光一期,1580745600,22.726586,114.310163
1128,龙岗区平湖山厦社区梨头廖,1580745600,22.710172,114.122098
1129,龙岗区招商依山郡,1580745600,22.735358,114.225511
1130,龙岗区桂芳园八期,1580745600,22.614383,114.145957
1131,龙岗区嶂背步行街,1580832000,22.689833,114.248326
1132,龙岗区吉信街如家酒店,1580918400,22.648365,114.208985
1133,龙岗区和磡村和磡路3号,1580918400,22.629359,114.068814
1134,龙岗区布吉海心汇福园,1580918400,22.624204,114.117145
1135,龙岗区卓然居,1581004800,22.648683,114.176248
1136,龙岗区家和花园南区,1581004800,22.617290,114.067856
1137,龙岗区山厦社区南油花园,1581004800,22.703368,114.117402
1138,龙岗区禾坪岗禾坪路5号,1581004800,22.662586,114.073395
1139,龙岗区远洋新干线君域花园,1581004800,22.724221,114.270956
1140,龙岗区雪象花园新村,1581004800,22.656305,114.082272
1141,龙岗区鼎尚华庭,1581004800,22.779211,114.308314
1142,龙岗区华为荔枝苑,1581091200,22.638541,114.083481
1143,龙岗区德兴花园德贵苑,1581091200,22.595898,114.117163
1144,龙岗区全伟达工业园,1581091200,22.634524,114.107377
1145,龙岗区杨美社区长坑三区,1581091200,22.617326,114.045954
1146,吴川市塘缀镇企石村,1580572800,21.444192,110.607176
1147,吴川市汇景湾渡假村,1580572800,21.392707,110.870528
1148,吴川市鼎龙湾2期,1580745600,21.392465,110.870863
1149,廉江市塘蓬镇山心村,1580572800,21.792385,110.127951
1150,赤坎区湾南路40号,1580572800,21.274933,110.380929
1151,赤坎区茂达居,1580572800,21.287966,110.368306
1152,雷州市纪家镇曲港村,1580572800,20.882492,109.756238
1153,雷州市英利镇幸福农场旧市场,1581004800,20.568254,110.018320
1154,霞山区嘉愉假日酒店,1580572800,21.192631,110.400080
1155,霞山区金祥花园金银阁,1580572800,21.217903,110.421253
1156,霞山区人民大道中13号邮电小区,1580572800,21.221319,110.402059
1157,坡头区恒大绿洲,1580745600,21.261715,110.464311
1158,坡头区龙头镇绿水村委会山口村,1580745600,21.347381,110.462640
1159,开发区金地豪苑帝景庭,1580572800,21.218514,110.426355
1160,斗门区斗门镇御金山小区,1580659200,22.220863,113.227208
1161,斗门区井岸镇之舟客栈,1580832000,22.165962,113.283235
1162,横琴新区横琴镇富祥湾深井村海马主题公寓,1580572800,22.100758,113.506838
1163,横琴新区祥澳路国贸大厦,1580572800,22.169194,113.516829
1164,金湾区三灶镇万科城市花园,1580572800,22.075957,113.396950
1165,金湾区红旗镇广安路92号,1580572800,22.141921,113.359037
1166,金湾区红旗镇东方润园,1580832000,22.139327,113.352418
1167,金湾区红旗镇格林豪泰酒店,1581091200,22.144636,113.352343
1168,香洲区前山街道权英豪苑,1580572800,22.287442,113.532161
1169,香洲区前山街道荣泰河庭,1580572800,22.244533,113.515960
1170,香洲区前山街道银石雅园,1580572800,22.240222,113.542172
1171,香洲区吉大街道绿茵豪庭,1580572800,22.254308,113.590316
1172,香洲区吉大街道锦江之星酒店（九洲大道店）,1580659200,22.251633,113.584858
1173,香洲区拱北街道蔚徕酒店,1580572800,22.223608,113.544799
1174,香洲区拱北街道骏发山庄,1580572800,22.237210,113.560642
1175,香洲区梅华街道富华广场3期,1580572800,22.273634,113.538498
1176,香洲区湾仔街道南联路91号,1580659200,22.210097,113.533752
1177,香洲区狮山街道望海楼酒店,1580572800,22.272088,113.587088
1178,香洲区狮山街道锦枫八方酒店,1580572800,22.285143,113.577106
1179,香洲区翠香街道御龙山庄,1580572800,22.261063,113.562747
1180,香洲区香湾街道金域蓝湾,1580572800,22.289449,113.584147
1181,香洲区前山街道万科城,1580745600,22.276966,113.510351
1182,香洲区前山街道暨南花园,1580745600,22.287831,113.530015
1183,香洲区南屏镇华发世纪城,1580745600,22.219415,113.532916
1184,香洲区梅华街道金鸿利嘉阁,1580572800,22.271609,113.535794
1185,香洲区翠香街道汉庭快捷酒店（银桦路店店）,1580572800,22.283338,113.563898
1186,香洲区南屏镇新翠路101号,1580832000,22.208515,113.459175
1187,香洲区拱北街道拱北城市便捷酒店,1580832000,22.227119,113.562469
1188,香洲区拱北街道珠海来魅力假日酒店,1580832000,22.223626,113.558662
1189,香洲区狮山街道国子间,1580745600,22.286768,113.581216
1190,香洲区香湾街道锦江之星酒店（扬名广场店）,1581004800,22.281486,113.585371
1191,香洲区前山街道金地伊顿山,1581091200,22.285902,113.538006
1192,高新区唐家湾镇中海银海湾,1580572800,22.321427,113.599870
1193,高新区唐家湾镇旭日湾花园,1580572800,22.339315,113.599323
1194,高新区唐家湾镇鸡山村,1580572800,22.343037,113.596464
1195,高新区金鼎南星街,1580572800,22.189708,113.307014
1196,高栏港区平沙镇美平一街240号,1580745600,22.106194,113.192473
1197,四会市东城街道九龙湾小区,1580572800,23.334726,112.726930
1198,广宁县南街镇碧翠湖度假村,1580572800,23.613211,112.436503
1199,端州区城东街道帝和豪庭小区,1580572800,23.063649,112.493798
1200,端州区睦岗街道锦绣山河小区,1580572800,23.059832,112.440010
1201,高要区南岸街道帝景蓝湾小区,1580572800,23.033564,112.479054
1202,高要区南岸街道珀丽湾小区,1580572800,23.036674,112.464526
1203,高要区大湾镇禄岸村,1580572800,23.052050,112.322531
1204,鼎湖区坑口街道一米阳光小区,1580572800,23.151541,112.571819
1205,封开县杏花镇新和村,1580832000,23.404300,111.717517
1206,封开县唐八叔清补羊火锅店,1581004800,23.445232,111.508395
1207,封开县广信嘉园,1581004800,23.453737,111.507295
1208,封开县江口镇乐惠士多店,1581004800,23.435170,111.517341
1209,封开县江口镇曙光路31号,1581004800,23.440374,111.508066
1210,江城区三环路,1580659200,21.850229,111.987087
1211,海陵区保利银滩B区,1580659200,21.583832,111.883344
1212,海陵区恒大御景湾,1580659200,21.618827,111.926802
1213,海陵区敏捷黄金海岸,1580659200,21.618079,111.948467
1214,阳东区东城辛福街,1580659200,21.874036,112.013270
1215,阳春市兴华路,1580745600,22.160481,111.794396
1216,阳西县织篢镇蒲牌墟,1580918400,21.750181,111.625747
1217,仲恺区陈江街道御景华城,1580832000,23.006753,114.325726
1218,博罗县柏塘镇车田村,1580745600,23.416469,114.334665
1219,博罗县长宁镇罗浮山家园,1580745600,23.223315,114.056412
1220,大亚湾区康汇花园,1580745600,22.745415,114.546439
1221,大亚湾区澳头街道办事处枫丹白鹭园,1580745600,22.741506,114.546314
1222,大亚湾区霞涌街道办事处华润小径湾观海轩,1580745600,22.796620,114.701944
1223,惠东县万科双月湾,1580745600,22.598911,114.889328
1224,惠东县平海镇驴友公寓,1580745600,22.609081,114.880507
1225,惠东县稔山镇碧桂园十里银滩海悦湾,1580745600,22.799991,114.733068
1226,惠东县巽寮滨海旅游度假区全季酒店,1581004800,22.696330,114.767801
1227,惠东县巽寮滨海旅游度假区海公园,1580832000,22.690490,114.763249
1228,惠东县港口虹海湾,1580832000,22.596585,114.911225
1229,惠东县巽寮滨海旅游度假区企鹅酒店,1581091200,22.690236,114.763341
1230,惠城区三栋镇大井口村,1580745600,22.996032,114.485609
1231,惠城区桥东街道东方威尼斯,1580745600,23.093225,114.444245
1232,惠城区桥东街道中海水岸城,1580745600,23.075834,114.457589
1233,惠城区雅居乐大道1号鹭湖会峰会别墅,1580745600,23.205814,114.457643
1234,惠城区龙丰街道鹅岭南路一城峯景,1580745600,23.070858,114.400186
1235,惠阳区淡水街道人民四路天安珑城,1580745600,22.803135,114.463702
1236,惠阳区淡水街道星河丹堤,1580832000,22.780498,114.493149
1237,南澳县蓝海豪景,1580659200,23.416494,117.040170
1238,南澳县深澳镇走马埔村,1581091200,23.474509,117.064850
1239,潮阳区关埠镇下底村,1580745600,23.481705,116.457751
1240,金平区东兴路11巷,1580659200,23.406455,116.719499
1241,金平区中信怀英花园,1580832000,23.396376,116.726648
1242,龙湖区龙腾熙园,1580659200,23.406935,116.743453
1243,龙湖区鸥汀街道陈厝寨华兴园,1580832000,23.443101,116.721062
1244,潮南区成田镇简朴村,1581004800,23.176668,116.490191
1245,汕头市潮南区陇田镇南埔村,1581091200,23.160236,116.537006
1246,佛冈县银座超市,1580745600,23.885488,113.538161
1247,清城区东城街海逸华庭,1580745600,23.710502,113.052441
1248,清城区凤城世家,1580745600,23.686386,113.065691
1249,清城区源潭镇佳利乐包装有限公司宿舍区,1580745600,23.662210,113.220687
1250,清城区石角镇美林湖天汇半岛,1580745600,23.513615,113.061607
1251,英德市青塘建新村委会陈屋村,1580745600,24.165231,113.815155
1252,英德市青塘集贸市场,1580745600,24.213784,113.859109
1253,连山壮族瑶族自治县吉田镇御庭山庄,1580745600,24.570310,112.097178
1254,连山壮族瑶族自治县小三江镇田心村委会雷冲村,1580745600,24.275580,112.143830
1255,阳山县城南海逸华庭,1580745600,24.481393,112.640027
1256,东源县船塘镇三河积良下村,1581004800,24.168446,114.952240
1257,源城区旺福路,1581004800,23.750230,114.712974
1258,启东市吕四港镇,1580313600,32.065681,121.609007
1259,启东市王鲍镇,1580313600,31.912151,121.580927
1260,如东县栟茶镇,1580313600,32.535563,120.901616
1261,如皋市如城街道,1580486400,32.381717,120.567841
1262,如皋市长江镇春江花苑,1580313600,32.111773,120.581436
1263,如皋市如城街道凌青8组,1581004800,32.442294,120.630650
1264,如皋市江安镇佘圩村8组,1581091200,32.142471,120.458968
1265,海安市南莫镇,1580313600,32.592741,120.291841
1266,海安市高新区,1580659200,32.524710,120.437954
1267,海安市高新区西城街道,1580313600,32.528535,120.472958
1268,海安市高新区中城街道金海国际花园,1580918400,32.529358,120.474906
1269,海门市三厂镇,1580659200,31.898916,121.261876
1270,海门市悦来镇,1580313600,31.941609,121.442531
1271,海门市滨江街道,1580832000,31.964344,121.172067
1272,通州区平潮镇,1580832000,32.106475,120.754689
1273,通州区张芝山镇八字桥村23组,1581091200,31.883927,121.044892
1274,经开区横林镇,1580918400,31.704223,120.106976
1275,经开区卫星村,1580918400,31.763962,120.076741
1276,天宁区郑陆镇东青长青名苑,1580918400,31.827968,120.091351
1277,天宁区青龙街道青龙苑,1580918400,31.799497,120.024313
1278,新北区新桥镇滨江明珠城,1580918400,31.874494,119.980441
1279,新北区三井街道世茂香槟湖,1580918400,31.818769,120.005150
1280,武进区洛阳镇民丰村徐家头,1580918400,31.616408,120.070071
1281,武进区湖塘镇中壮新村,1580918400,31.724490,119.956916
1282,武进区湖塘镇新城帝景北区,1580918400,31.714946,119.956861
1283,武进区高新区北区新城春天里,1580918400,31.732601,119.977448
1284,溧阳市社渚镇大众巷,1580918400,31.323761,119.282795
1285,金坛区西城街道,1581091200,31.749993,119.570999
1286,钟楼区永红街道荆川里小区,1580918400,31.764162,119.934494
1287,钟楼区邹区镇凌家塘,1580918400,31.782423,119.869521
1288,丰县华山镇邢桥村王庄,1580400000,34.683831,116.707514
1289,新沂市马陵山风景区花厅村,1580313600,34.236770,118.339722
1290,沛县沛城镇梦圆小区,1580400000,34.744287,116.948065
1291,贾汪区大泉街泉城花都,1580400000,34.450917,117.478708
1292,贾汪区老矿街道泉旺头村,1580400000,34.452691,117.443067
1293,邳州市建设南路蔬菜公司宿舍,1580313600,34.320771,117.966002
1294,邳州市明德小区,1580486400,34.340640,117.978499
1295,邳州市运河镇银河湾小区,1580313600,34.303826,117.981722
1296,邳州市港上镇南荆邑村,1580832000,34.508773,118.108384
1297,邳州市水杉御景小区,1581004800,34.347271,117.973982
1298,鼓楼区西站小区,1580400000,34.281166,117.193152
1299,云龙区美的翰城,1581004800,34.214774,117.304829
1300,云龙区世茂天观,1581091200,34.248774,117.222070
1301,睢宁县天华小区,1581004800,33.908277,117.982320
1302,睢宁县睢城街道帝壹城,1581004800,33.906095,117.976803
1303,睢宁县胡集村赵西组,1581091200,33.905244,117.725539
1304,睢宁县高作镇高南村,1581091200,33.916595,118.044886
1305,睢宁县康馨花园小区东门对面巷子,1581177600,34.788540,116.741147
1306,睢宁县睢城镇东方花园,1581177600,33.910328,117.969516
1307,睢宁县睢城镇奥体清华苑,1581177600,33.925368,117.969007
1308,睢宁县睢城镇瑞凯国际,1581177600,33.921562,117.968703
1309,兴化市张郭镇蒋庄村,1580572800,32.755332,120.179143
1310,姜堰区白米镇大安村,1580572800,32.473022,120.201105
1311,姜堰区苏源大酒店,1580572800,32.512074,120.178887
1312,姜堰区罗塘街道,1580918400,32.497213,120.152180
1313,姜堰区天目山街道,1580745600,32.533537,120.152008
1314,姜堰区白米镇,1580918400,32.517698,120.258549
1315,靖江市斜桥镇,1580745600,32.054752,120.374494
1316,高港区口岸街道,1580745600,32.314305,119.884864
1317,高港区大泗镇,1581004800,32.370273,119.988154
1318,高港区泰兴市广陵镇,1581091200,32.111328,120.246900
1319,海州区振海路正诺中西医结合诊所,1580400000,34.581478,119.147479
1320,海州区振海路江希银诊所,1580400000,34.596218,119.163384
1321,海州区青岛花园,1580659200,34.592940,119.165045
1322,海州区巨龙街糖兴巷,1580745600,34.612726,119.212782
1323,海州区新孔南路供电局宿舍,1580745600,34.597232,119.170694
1324,海州区浦西街道龙尾路,1580745600,34.618909,119.186432
1325,海州区常乐新村,1580832000,34.596348,119.169198
1326,海州区板浦镇润昌小区,1580832000,34.492866,119.253507
1327,海州区路南街道运河路,1580832000,34.595354,119.180269
1328,海州区宁海街道卞浦村,1580918400,34.531041,119.214061
1329,海州区板浦镇天池小区,1580918400,34.482853,119.261185
1330,海州区江化北路江化小区,1581177600,34.584876,119.158977
1331,海州区香江花园,1581177600,34.584391,119.165050
1332,灌南县新安镇人民西路海西公园旁大药房,1581004800,34.093916,119.341988
1333,灌南县新安镇西村康泰小区49号楼5单元,1581004800,34.099307,119.315329
1334,灌南县新安镇中科府苑D14号楼1单元,1581091200,34.098434,119.322944
1335,灌南县新安镇加州水岸19号楼2单元,1581091200,34.083257,119.325452
1336,灌南县新安镇海西公园旁大药房,1581091200,34.093916,119.341988
1337,广陵区汤汪乡怡新花园1栋,1580572800,32.384060,119.498818
1338,江都区大桥镇启于村,1580745600,32.401590,119.693545
1339,江都区江都华丰紫郡,1580832000,32.452873,119.579074
1340,江都区邵伯镇京杭村,1580832000,32.604725,119.494318
1341,江都区仙女镇江淮路82号,1580832000,32.439813,119.566728
1342,江都区邵伯镇运东村,1580832000,32.614178,119.490618
1343,江都区勤丰嘉苑26号楼,1581004800,32.453066,119.567072
1344,宝应县广洋湖镇东溪村,1580832000,33.212387,119.669701
1345,宝应县柳堡镇新安村,1580832000,33.159572,119.531585
1346,宝应县广洋湖镇一里村三组,1581004800,33.227863,119.641793
1347,宝应县碧桂园40幢,1581177600,33.227108,119.347633
1348,蜀冈-瘦西湖景区史可法路39号,1580832000,32.414686,119.446979
1349,邗江区京华城怡景苑,1580832000,32.390125,119.385333
1350,邗江区西湖镇汇锦花园,1580832000,32.429786,119.392098
1351,吴中区木渎镇五峰村,1580832000,31.276584,120.479273
1352,吴中区木渎镇青年城,1580832000,31.287792,120.529353
1353,吴中区甪直镇维拉花园,1580832000,31.272757,120.869551
1354,吴中区香山街道花样年·别样城,1580832000,31.229414,120.427411
1355,吴中区南香花弄,1581004800,31.170425,120.544301
1356,吴中区木渎镇方圆·云山诗意,1581091200,31.260880,120.544440
1357,吴中区郭巷街道国泰三村,1581091200,31.257590,120.691644
1358,吴江区平望镇印象家园,1580832000,30.988323,120.640264
1359,吴江区松陵街道鲈乡三村,1580832000,31.172392,120.643063
1360,吴江区盛泽镇城中花园,1580832000,30.910295,120.654719
1361,吴江区盛泽镇碧桂园小区,1580832000,30.908584,120.616196
1362,吴江区震泽镇太平街道,1580832000,30.918873,120.515662
1363,太仓市城厢镇北门一村,1580832000,31.462270,121.118823
1364,姑苏区三元三村金阊街道,1580832000,31.310330,120.586037
1365,姑苏区苏锦街道万科金域平江,1580832000,31.349473,120.625347
1366,姑苏区虎丘街道西叶家弄,1580832000,31.310906,120.642356
1367,姑苏区金阊街道利景华庭,1580832000,31.311597,120.608383
1368,工业园区东港二村娄葑街道,1580832000,31.322682,120.661036
1369,工业园区东港新村娄葑街道二组团,1580832000,31.328246,120.657289
1370,工业园区东湖大郡2期,1580832000,31.316539,120.739481
1371,工业园区九龙仓时代上城,1580832000,31.335245,120.687111
1372,工业园区唯亭街道张泾一村,1580832000,31.378101,120.728804
1373,工业园区唯亭街道青剑湖花园,1580832000,31.363336,120.714601
1374,工业园区嘉瑞巷乐嘉大厦,1580832000,31.331133,120.725588
1375,工业园区太阳星辰花园,1580832000,31.339447,120.772382
1376,工业园区徐家浜北二村娄葑街道,1580832000,31.315896,120.660159
1377,工业园区星公元名邸,1580832000,31.316204,120.760209
1378,工业园区水墨花园,1580832000,31.335245,120.687111
1379,工业园区海尚壹品,1580832000,31.335728,120.722665
1380,工业园区海德公园,1580832000,31.279470,120.755299
1381,工业园区荣域花园,1580832000,31.288356,120.731084
1382,工业园区雅戈尔潇邦东区,1580832000,31.337052,120.712768
1383,工业园区东港二村,1580918400,31.322682,120.661036
1384,工业园区莲花新村5区,1581004800,31.292257,120.737887
1385,常熟市吴市办事处三湾村,1580832000,31.720411,120.992522
1386,常熟市虞山街道方塔鸭潭头,1580832000,31.644254,120.749799
1387,常熟市鸭潭头小区,1581004800,31.657328,120.754740
1388,昆山市周市镇时代名苑,1580832000,31.410725,121.002421
1389,昆山市玉山镇世茂蝶湖湾小区,1580832000,31.345772,120.968726
1390,昆山市玉山镇北门路永盛广场,1580832000,31.420214,120.955902
1391,昆山市玉山镇澞和苑,1580832000,31.378612,120.954947
1392,昆山市玉山镇珑庭家园,1580832000,31.414956,120.958337
1393,昆山市珠江御景,1580832000,31.395580,121.039104
1394,昆山市阳光水世界,1580832000,31.382642,121.049635
1395,昆山市首创悦都小区,1580832000,31.372861,121.070559
1396,昆山市玉山镇珑庭花园,1580918400,31.364784,120.956296
1397,昆山市玉山镇麒麟新村,1580918400,31.390595,120.963106
1398,昆山市玉山镇民营路工厂宿舍,1581004800,31.414532,120.947674
1399,昆山市中航城花园,1581004800,31.387482,121.031728
1400,相城区元和街道朱巷社区,1580832000,31.414373,120.623403
1401,相城区元和街道誉相庭,1580832000,31.364314,120.649115
1402,相城区黄埭镇潘阳新村,1580832000,31.446229,120.555505
1403,高新区鸿文雅苑,1580832000,31.366804,120.520827
1404,高新区通安镇华通花园一区,1580659200,31.384751,120.488068
1405,张家港市杨舍镇东莱新村,1581177600,31.895721,120.616146
1406,涟水县涟城街道城东居委会,1580918400,33.745731,119.320464
1407,淮安区书香门第小区,1580918400,33.541416,119.160843
1408,淮安区如意里小区,1580918400,33.517481,119.171560
1409,淮安区文化馆小区,1580918400,33.509261,119.147543
1410,淮安区河下街道河北村,1580918400,33.549417,119.140136
1411,淮安区河下街道红桥村,1580918400,33.550985,119.159615
1412,淮安区淮上人家小区,1580918400,33.529397,119.169845
1413,淮安区盛世豪庭小区,1580918400,33.527741,119.164467
1414,淮安区石塘镇城南1号,1580918400,33.523537,119.241939
1415,淮安区石塘镇靖大庄居委会,1580918400,33.462682,119.233695
1416,淮安区石塘镇鹅钱村,1580918400,33.492090,119.209289
1417,淮安区蓝惠首府小区,1580918400,33.542450,119.135856
1418,淮安区锦绣江南小区,1580918400,33.535672,119.157520
1419,淮安区苏嘴镇大单村,1581004800,33.642303,119.433282
1420,淮安区锦绣山阳小区,1581004800,33.503651,119.159749
1421,淮安区香溢花园,1581004800,33.509261,119.147543
1422,淮安区富士花苑小区,1581091200,33.516951,119.174526
1423,淮安区车桥镇泾口街,1581091200,33.475934,119.403927
1424,淮安区漕运镇盛庄村,1581177600,33.450360,119.169400
1425,淮阴区三树镇周集村,1580918400,33.644773,118.821158
1426,淮阴区富豪花园A区,1580918400,33.627445,119.018098
1427,淮阴区淮高镇玉尧村,1580918400,33.785722,119.082443
1428,清江浦区人民北路19号干休所,1580918400,33.600965,119.028226
1429,清江浦区亿力未来城小区,1580918400,33.591384,119.060925
1430,清江浦区洪福小区,1580918400,33.612338,119.080579
1431,清江浦区盛世名门小区,1580918400,33.584539,119.062629
1432,清江浦区郦城国际小区,1580918400,33.596739,119.058158
1433,生态文旅区中南世纪锦城,1580918400,33.544116,119.126206
1434,生态文旅区徐杨小区二期,1580918400,33.575500,119.165140
1435,金湖县建设路2号,1580918400,33.028977,119.019831
1436,金湖县黎城街道桓裕广场,1580918400,33.025134,119.023495
1437,经济技术开发区大湖城邦小区,1581091200,33.596135,119.092388
1438,建邺区保利香槟国际,1580745600,31.988848,118.723811
1439,建邺区水西门大街356号小区,1580745600,32.040409,118.756468
1440,建邺区爱达花园紫藤园,1580745600,32.022204,118.768773
1441,栖霞区幕府山庄,1580745600,32.129786,118.823867
1442,栖霞区弘阳燕江府,1580745600,32.144120,118.834107
1443,栖霞区朗诗保利麓院小区,1580745600,32.093814,118.936451
1444,江北新区华侨城,1580745600,32.152673,119.003641
1445,江北新区新华七村,1580745600,32.238273,118.778891
1446,江北新区江岸水城,1580745600,32.161084,118.747162
1447,江北新区海德北岸,1580745600,32.128372,118.739825
1448,江宁区世纪东山,1580745600,31.965606,118.875393
1449,江宁区楚襄园,1580745600,31.915673,118.788819
1450,江宁区润麒路36号,1580745600,31.992806,118.875060
1451,江宁区爱涛翠湖花园,1580745600,31.925403,118.799935
1452,江宁区翠屏国际城水杉苑,1580745600,31.942375,118.791778
1453,江宁区锦绣花园,1580745600,32.061939,118.939637
1454,溧水区卧龙湖小镇,1580745600,31.725799,119.059277
1455,玄武区仙居雅苑,1580745600,32.099133,118.903741
1456,玄武区孝陵卫21号院,1580745600,32.041290,118.870237
1457,玄武区锁金六村,1580745600,32.075804,118.825359
1458,雨花台区柏阅澜庭,1580745600,31.994897,118.760833
1459,雨花台区莱蒙水榭阳光,1580745600,31.953565,118.759296
1460,雨花台区长发诸公,1580745600,32.000764,118.783962
1461,高淳区穆家庄,1580745600,31.398225,119.075538
1462,鼓楼区天玺国际,1580745600,32.048727,118.736123
1463,鼓楼区安乐村,1580745600,32.099217,118.769564
1464,鼓楼区清河新寓二村,1580745600,32.047765,118.736084
1465,鼓楼区金舟花园,1580745600,32.057357,118.744514
1466,鼓楼区金陵小区宝象花园,1580745600,32.111911,118.766096
1467,宜兴市周铁镇章茂村,1581004800,31.479235,119.997356
1468,惠山区前洲街道星海康嘉园,1581004800,31.696119,120.217366
1469,惠山区钱桥街道振兴路,1581004800,31.604558,120.232879
1470,惠山区钱桥街道钱桥北街,1581004800,31.611566,120.242452
1471,惠山区长安街道理想城市,1581004800,31.666070,120.328072
1472,惠山区长安街道奥林匹克花园,1581177600,31.684380,120.318724
1473,惠山区长安街道怡和花园,1581177600,31.689797,120.319239
1474,新吴区新安街道龙湖滟澜山小区,1581004800,31.476429,120.370128
1475,新吴区旺庄街道春潮花园三期,1581004800,31.562113,120.376133
1476,江阴市澄江街道丽都城市花园,1581004800,31.909505,120.306744
1477,江阴市申港街道崇文路,1581004800,31.898381,120.149597
1478,江阴市城东街道双牌一村,1581177600,31.921680,120.324204
1479,滨湖区河垺街道万达广场C区,1581004800,31.566170,120.271104
1480,滨湖区蠡湖大道桔园公寓,1581004800,31.496627,120.278184
1481,滨湖区雪浪街道南苑新村,1581004800,31.439152,120.277272
1482,锡山区东亭街道中大诺卡小镇,1581004800,31.604291,120.350813
1483,锡山区东亭街道春合苑,1581004800,31.584305,120.366284
1484,锡山区东亭街道首创隽府,1581004800,31.601589,120.373779
1485,锡山区安镇街道电信局宿舍,1581004800,31.615498,120.480717
1486,锡山区安镇街道豪景东苑,1581004800,31.618928,120.480584
1487,锡山区羊尖镇廊下花苑,1581004800,31.612531,120.524840
1488,修水县义宁镇,1580572800,29.009349,114.540286
1489,修水县大桥镇,1580313600,28.960098,114.117114
1490,修水县大桥镇十里街道,1580400000,28.959944,114.116803
1491,修水县水源乡,1580400000,29.004617,114.044529
1492,修水县太阳升镇农科所幸福村,1580745600,29.174598,114.688353
1493,修水县义宁镇帝王国际小区,1580918400,29.033054,114.554670
1494,修水县义宁镇百合新城小区,1580918400,29.009349,114.540286
1495,八里湖新区八里湖街道,1580486400,29.708626,115.979297
1496,八里湖新区九龙新城,1580745600,29.664790,115.956804
1497,八里湖新区八里湖安置小区,1580745600,29.675961,115.964081
1498,共青城市茶山街道,1580572800,29.242592,115.808110
1499,共青城市泽泉乡长塘村,1581091200,29.309118,115.871326
1500,彭泽县马当镇,1580313600,29.991362,116.663680
1501,彭泽县龙城镇,1580400000,29.902165,116.555291
1502,彭泽县马当镇湖西村,1581091200,30.038866,116.741527
1503,德安县车桥镇,1580313600,29.362355,115.472034
1504,德安县河东乡人民财产保险公司家属楼,1580745600,29.342480,115.777526
1505,柴桑区涌泉乡,1580572800,29.618838,115.683960
1506,柴桑区新塘乡前进村,1581177600,29.606958,115.740087
1507,武宁县鲁溪镇,1580313600,29.438808,115.244907
1508,武宁县大洞乡彭坪村,1581177600,29.500681,114.911261
1509,永修县永丰垦殖场,1580572800,28.997695,115.807000
1510,永修县涂埠镇,1580572800,29.045786,115.830041
1511,永修县涂埠镇老城林兴小区,1580745600,29.047774,115.830488
1512,永修县九合乡新华村,1580832000,29.104712,115.891025
1513,永修县立新乡杨春村,1580832000,29.022920,115.757075
1514,浔阳区甘棠街道,1580313600,29.736754,116.007254
1515,浔阳区白水湖街道,1580313600,29.733289,116.019460
1516,浔阳区金鸡坡街道,1580313600,29.755325,116.059651
1517,浔阳区白水湖街道御江一品,1580745600,29.737465,116.014782
1518,浔阳区甘棠街道中辉凯旋城,1580832000,29.724159,116.015568
1519,浔阳区白水湖街道景馨小区,1580832000,29.721857,116.013776
1520,湖口县城山镇,1580572800,29.604676,116.268730
1521,湖口县武山镇,1580313600,29.587264,116.344034
1522,湖口县舜德乡,1580313600,29.583945,116.240927
1523,湖口县双钟镇洋港安置小区,1580745600,29.748363,116.242605
1524,湖口县双钟镇磨具厂宿舍,1580745600,29.730455,116.251985
1525,湖口县城山镇大塘村,1580745600,29.604982,116.268493
1526,湖口县武山镇长岭村,1580745600,29.580172,116.346506
1527,湖口县舜德乡舜德村,1580745600,29.584013,116.240394
1528,湖口县武山镇莲凤村,1580832000,29.568121,116.320024
1529,湖口县城山镇横山村,1581177600,29.592876,116.288738
1530,濂溪区五里街道,1580400000,29.717680,116.021131
1531,濂溪区十里街道,1580313600,29.674323,115.995909
1532,濂溪区姑塘镇,1580486400,29.629213,116.127171
1533,濂溪区新港镇,1580313600,29.748391,116.117400
1534,濂溪区莲花镇,1580659200,29.643903,115.991363
1535,濂溪区五里街道怡居苑,1580745600,29.706710,116.040183
1536,濂溪区五里街道美日阳光小区,1580745600,29.704904,116.036575
1537,濂溪区五里街道龙珠花园,1580832000,29.719759,116.022732
1538,经开区向阳街道,1580400000,29.708777,115.979167
1539,都昌县中馆镇,1580400000,29.385364,116.547443
1540,都昌县徐埠镇,1580572800,29.467705,116.325339
1541,都昌县蔡岭镇,1580659200,29.482051,116.413791
1542,都昌县都昌镇,1580313600,29.270803,116.213724
1543,都昌县阳峰乡,1580572800,29.294510,116.391509
1544,都昌县桥乡堰上余世府,1581004800,29.568062,116.336685
1545,都昌县汪墩乡杨坞村,1581004800,29.399566,116.288694
1546,庐山市温泉镇通书院村,1580832000,29.397979,115.888646
1547,东湖区大院街道,1580486400,28.680702,115.918525
1548,东湖区董家窑街道八一大道,1580486400,28.674599,115.910461
1549,东湖区董家窑街道永外正街,1580486400,28.692343,115.911916
1550,东湖区董家窑街道蓝天碧水小区,1580486400,28.699704,115.908949
1551,东湖区豫章街道,1580486400,28.695467,115.900603
1552,东湖区豫章街道阳明锦城,1580486400,28.695564,115.907714
1553,东湖区公园街道上营坊,1580745600,28.691152,115.905658
1554,南昌县八月湖街道,1580486400,28.594878,115.880675
1555,南昌县八月湖街道九里象湖城,1580659200,28.594819,115.880706
1556,南昌县塘南镇塘南街,1580486400,28.660881,116.150641
1557,南昌县塘南镇张溪村,1580486400,28.675546,116.129689
1558,南昌县塘南镇渡口村,1580486400,28.660010,116.109242
1559,南昌县小莲村,1580486400,28.711798,116.228056
1560,南昌县幽兰镇黄坊村,1580486400,28.548624,116.091215
1561,南昌县良种场付林村,1580486400,28.485748,115.929613
1562,南昌县莲塘镇,1580486400,28.548791,115.940710
1563,南昌县莲塘镇无伦华庭小区,1580486400,28.548791,115.940710
1564,南昌县蒋巷镇高梧村,1580659200,28.752874,115.965915
1565,南昌县东新乡保集半岛,1580745600,28.593232,115.887183
1566,南昌县东新乡象湖绿地兰宫,1580745600,28.597519,115.905239
1567,南昌县莲塘镇澄湖左岸小区,1580745600,28.550077,115.937169
1568,南昌县南镇塘塘南街,1580745600,28.551480,115.950681
1569,南昌县八月湖街道九里象湖城靖安里,1580918400,28.604935,115.892643
1570,南昌县莲塘镇270研究所宿舍,1580918400,28.548791,115.940710
1571,南昌县八一乡板莲村,1581004800,28.528989,116.013385
1572,南昌县八月湖街道象湖保集半岛,1581004800,28.594007,115.883747
1573,南昌县莲塘镇向阳路汇源华庭,1581091200,28.549406,115.946735
1574,南昌县向塘镇沙潭村,1581177600,28.463501,115.989831
1575,安义县石鼻镇古楼村,1580486400,28.742867,115.555960
1576,安义县石鼻镇向坊村,1580486400,28.724931,115.615683
1577,安义县长埠镇车田村,1580486400,28.813445,115.642195
1578,安义县石鼻镇联合村,1580832000,28.760673,115.565323
1579,新建区溪霞镇甘舍村,1580486400,28.855382,115.862644
1580,新建区长堎镇,1580486400,28.703127,115.827751
1581,新建区长堎镇莱卡小镇,1580486400,28.706286,115.811945
1582,新建区金桥乡金桥街,1581177600,28.977902,115.916779
1583,红谷滩新区沙井街道万达华府,1580486400,28.675030,115.862141
1584,红谷滩新区沙井街道卫东花园,1580659200,28.685658,115.845168
1585,红谷滩新区沙井街道联泰桥郡,1580572800,28.653647,115.842023
1586,红谷滩新区沙井街道莱蒙都会,1580918400,28.701743,115.854545
1587,红谷滩新区沙井街道,1581177600,28.702132,115.863006
1588,西湖区南浦街道,1580486400,28.669408,115.902705
1589,西湖区南站街道,1580486400,28.670386,115.922623
1590,西湖区广润门街道,1580572800,28.678954,115.892991
1591,西湖区抚生路镇金国际村朝阳洲街道,1580486400,28.666996,115.883400
1592,西湖区朝阳洲街道,1580486400,28.666915,115.883369
1593,西湖区朝阳洲街道桃欣嘉苑,1580486400,28.666573,115.881803
1594,西湖区朝阳洲街道滨江壹号,1580486400,28.666915,115.883369
1595,西湖区朝阳洲街道皇冠国际,1580486400,28.663575,115.881954
1596,西湖区桃源街道,1580486400,28.668999,115.893895
1597,西湖区桃源街道公安小区,1580486400,28.651222,115.908591
1598,西湖区桃花镇三小村,1580486400,28.659176,115.889165
1599,西湖区桃花镇三角村,1580486400,28.632462,115.887172
1600,西湖区桃花镇恒大华府,1580486400,28.631402,115.885790
1601,西湖区桃花镇桃欣佳苑,1580486400,28.666573,115.881803
1602,西湖区桃花镇郭家庄,1580486400,28.665337,115.881338
1603,西湖区绳金塔街道,1580486400,28.669055,115.904901
1604,西湖区朝农街道力高滨江,1580745600,28.642308,115.860426
1605,西湖区朝阳洲街道朝阳小区,1580745600,28.666348,115.884213
1606,西湖区桃花镇九洲大街恒大华府,1580832000,28.631402,115.885790
1607,西湖区桃花镇玉兰路联发君领朝阳,1580832000,28.632900,115.875588
1608,西湖区十字街街道前进路,1580918400,28.665403,115.905993
1609,西湖区十字街街道安石路桃花住宅区,1581004800,28.658881,115.891566
1610,西湖区南站街道丁公路岔道口西路江西储运公司宿舍,1581004800,28.677062,115.919341
1611,西湖区丁公路街道二七南路,1581091200,28.666782,115.924397
1612,进贤县文港镇,1580486400,28.295962,116.133583
1613,进贤县文港镇新坪村,1580486400,28.255443,116.153387
1614,进贤县文港镇清华城,1580659200,28.290560,116.144630
1615,进贤县李渡镇,1580486400,28.232287,116.187251
1616,进贤县李渡镇李渡大道,1580659200,28.228961,116.173309
1617,进贤县李渡镇益康花园,1580486400,28.230374,116.186714
1618,进贤县民和镇,1580659200,28.384785,116.254580
1619,进贤县民和镇世纪新城,1580486400,28.378906,116.260632
1620,进贤县港东村,1580659200,28.339946,116.348708
1621,进贤县罗溪镇北叶村,1580659200,28.418501,116.163478
1622,进贤县文港镇晏殊大道晏归北路,1580745600,28.295962,116.133583
1623,进贤县李渡镇里湖路,1580745600,28.232287,116.187251
1624,进贤县民和镇云桥路,1580745600,28.372377,116.257280
1625,进贤县罗溪镇坝塘村,1580832000,28.368437,116.206685
1626,进贤县三里乡光辉村,1580918400,28.694948,116.409576
1627,进贤县文港镇前途村,1580918400,28.290182,116.173058
1628,进贤县李渡镇李渡益康花园,1580918400,28.230374,116.186714
1629,进贤县民和镇五小旁,1580918400,28.364472,116.270012
1630,进贤县文港镇圣东路,1581004800,28.295962,116.133583
1631,进贤县李渡镇排楼村李渡大道,1581004800,28.215804,116.188505
1632,进贤县三里乡红富大队,1581091200,28.684677,116.390002
1633,进贤县文港镇前途冠堡村,1581091200,28.293606,116.174395
1634,进贤县三里乡何家村,1581091200,28.684677,116.390002
1635,进贤县文港镇农贸南路,1581177600,28.287028,116.127500
1636,进贤县文港镇文港大道,1581177600,28.289211,116.128366
1637,进贤县李渡镇龙谭村,1581177600,28.232287,116.187251
1638,青云谱区三家店街道,1580486400,28.624868,115.924682
1639,青云谱区青云谱镇城南家园,1580486400,28.625894,115.948252
1640,青云谱区青云谱镇墅溪公寓,1580486400,28.645376,115.941941
1641,青云谱区青云谱镇包家花园,1580832000,28.628328,115.926601
1642,青云谱区城南教师委村三家店街道,1580918400,28.634026,115.913758
1643,青云谱区京山街道施尧路水榭花都,1581004800,28.632447,115.908755
1644,青云谱区新巷镇新巷村三家店街道,1581004800,28.633656,115.922013
1645,青云谱区岱山街道施尧路天使水榭湾,1581177600,28.622251,115.907975
1646,青山湖区京东镇京东南大道西,1580486400,28.672690,115.974009
1647,青山湖区塘山镇香溢花城,1580486400,28.705554,115.953716
1648,青山湖区湖坊镇庐山花园,1580486400,28.686962,115.957586
1649,青山湖区罗家镇赵坊村,1580572800,28.641098,116.022990
1650,青山湖区罗家镇赵坊秦村,1580486400,28.667358,115.999639
1651,青山湖区高新南大道鑫和园小区,1580486400,28.636498,115.963813
1652,青山湖区京东镇顺外路万科城,1581177600,28.656407,115.978567
1653,青山湖区塘山镇罗万村,1581177600,28.699527,115.966004
1654,国家高新产业技术开发区昌东镇长胜村,1580572800,28.676519,116.016493
1655,国家高新产业技术开发区艾溪湖管理处九江花园,1580918400,28.673269,115.997878
1656,国家高新产业技术开发区麻丘镇南岗村,1580832000,28.627198,116.096585
1657,国家高新产业技术开发区麻丘镇长江村,1580486400,28.699228,116.091481
1658,国家高新产业技术开发区麻丘镇刘城村,1580486400,28.679997,116.087742
1659,国家高新产业技术开发区麻丘镇宝塔村,1580486400,28.647826,116.064124
1660,国家高新产业技术开发区麻丘镇瑶湖花园,1581004800,28.664559,116.084842
1661,国家高新产业技术开发区广阳小区,1580659200,28.673803,115.995152
1662,国家高新产业技术开发区昌东镇,1580486400,28.682442,116.013370
1663,国家高新产业技术开发区昌东镇三联村,1580486400,28.662054,116.023145
1664,国家高新产业技术开发区昌东镇光明村,1580486400,28.688978,116.020159
1665,国家高新产业技术开发区艾溪湖管理处南塘村,1580832000,28.694577,116.007106
1666,国家高新产业技术开发区艾溪湖管理处昌东大道城泰湖韵天成,1580745600,28.715173,116.016985
1667,国家高新产业技术开发区麻丘镇,1580486400,28.674344,116.092965
1668,国家高新产业技术开发区麻丘镇厚浦街,1580572800,28.674344,116.092965
1669,国家高新产业技术开发区麻丘镇厚溪村,1580486400,28.654960,116.081224
1670,国家高新产业技术开发区麻丘镇孙家村,1580745600,28.674344,116.092965
1671,国家高新产业技术开发区麻丘镇广安村,1580486400,28.701207,116.105050
1672,国家高新产业技术开发区麻丘镇瑶湖春天,1580659200,28.673296,116.085660
1673,国家高新产业技术开发区麻丘镇瑶湖豪宅,1580486400,28.669276,116.077626
1674,国家高新产业技术开发区麻丘镇闵家村,1580745600,28.674344,116.092965
1675,国家高新产业技术开发区麻丘镇麻丘村,1580486400,28.677980,116.075327
1676,国家高新产业技术开发区麻丘镇麻丘街瑶湖花园,1580486400,28.664559,116.084842
1677,国家高新产业技术开发区龙江花园,1580659200,28.728751,115.972086
1678,经济开发区冠山管理处,1580486400,28.773028,115.865255
1679,经济技术开发区白水湖管理处中联村,1580745600,28.770338,115.858550
1680,经济技术开发区白水湖管理处港口村双港东大街,1580745600,28.770338,115.858550
1681,经济技术开发区蛟桥镇枫林东大街,1580832000,28.742154,115.858412
1682,渝水区仙来办事处喜盛威尼斯,1580659200,27.797081,114.955722
1683,渝水区城北办毛家村委布上村私宅,1580572800,27.838998,114.925317
1684,渝水区城北街道名仕公馆,1580659200,27.825359,114.915546
1685,渝水区城北街道康盛花园,1580572800,27.814221,114.932888
1686,渝水区城北街道电厂,1580659200,27.831456,114.935917
1687,渝水区城北街道金叶花园,1580659200,27.802921,114.954979
1688,渝水区城南街道水木清华,1580659200,27.805655,114.957459
1689,渝水区城南街道沙土地税局站北路私宅,1580572800,27.817181,114.939504
1690,渝水区时代华城,1580486400,27.818974,114.960403
1691,渝水区沙土乡贯早村,1580659200,27.831170,114.933889
1692,渝水区仙来办事处喜盛威尼斯23栋1单元,1580745600,27.797411,114.955828
1693,渝水区城北街道新余日报社家属楼2栋1单元,1580745600,27.827796,114.921765
1694,渝水区城北街道桥背管理处长埠堎村小组,1581177600,27.822512,114.937371
1695,渝水区城北街道电厂生活区14栋2单元,1580745600,27.831882,114.935302
1696,渝水区城北街道里木塘4栋1单元,1580745600,27.828935,114.911618
1697,渝水区城南街道公园1号6栋,1580745600,27.806566,114.957671
1698,渝水区城南街道茶山口社区玉紫北路党校小区,1581091200,27.810778,114.948373
1699,渝水区罗坊镇刘家村委刘家村,1580745600,27.871324,115.099310
1700,渝水区城北街道交通银行一大院,1580832000,27.826784,114.923932
1701,渝水区城北街道半岛豪园,1580832000,27.838084,114.948551
1702,渝水区城北街道明珠花园,1580832000,27.826324,114.913604
1703,渝水区城北街道盛德世纪花园,1580832000,27.824752,114.898580
1704,渝水区城北街道青竹园,1580832000,27.813548,114.930525
1705,渝水区城北街道鸿发苑,1580832000,27.818556,114.945104
1706,渝水区城南街道五交化公司宿舍,1580832000,27.803567,114.957780
1707,渝水区城南街道钻石花苑,1580832000,27.801169,114.943385
1708,渝水区白水塘小区,1580832000,27.832046,115.001902
1709,渝水区城东办景江花园25栋3单元,1580918400,27.834419,114.952996
1710,渝水区城东办绿江南小区2栋1单元,1580918400,27.829268,114.959334
1711,渝水区城北街道北湖中路园田居小区2栋1单元,1580918400,27.829519,114.930561
1712,渝水区城北街道名仕公馆18栋,1580918400,27.825359,114.915546
1713,渝水区城北街道铁路后三村14栋1单元,1580918400,27.828935,114.911618
1714,渝水区新钢街道苗圃星城12栋2单元,1580918400,27.799700,114.941266
1715,渝水区新钢街道苗圃星城35栋1单元,1580918400,27.799700,114.941266
1716,渝水区珠珊村委仙来办事处珠珊村小组,1580918400,27.783277,114.957250
1717,渝水区袁河办事处钢都现代城8栋2单元,1580918400,27.802762,114.928515
1718,渝水区城北街道博大园中苑小区10幢2单元,1581004800,27.811217,114.934340
1719,渝水区城北街道名仕公馆13栋,1581004800,27.825359,114.915546
1720,渝水区城北街道铁路四村74栋2单元,1581004800,27.818933,114.939421
1721,渝水区城北街道香山听泉34栋2单元,1581004800,27.828821,114.902066
1722,渝水区城北街道香山听泉34栋3单元,1581004800,27.828821,114.902066
1723,渝水区城南街道三叠园听雨楼1幢3单元,1581004800,27.799507,114.946221
1724,渝水区姚圩镇刘家村委刘家村小组,1581004800,27.882801,115.234008
1725,渝水区东山雅驻2期,1580486400,27.822106,114.934887
1726,渝水区丽景新村,1580486400,27.813204,114.936998
1727,渝水区佛朗明戈,1580486400,27.845556,114.921529
1728,渝水区公园华府,1580486400,27.850830,114.953393
1729,渝水区半山御暻,1580486400,27.833177,114.940362
1730,渝水区喜盛威尼斯,1580486400,27.797081,114.955722
1731,渝水区园中苑4区,1580486400,27.812190,114.935638
1732,渝水区园田居,1580486400,27.829872,114.930614
1733,渝水区孔目江1号,1580486400,27.806615,114.951035
1734,渝水区安鑫雅庭,1580486400,27.815916,114.935903
1735,渝水区宝莱大厦,1580486400,27.806593,114.947440
1736,渝水区居尚酒店,1580486400,27.808568,114.944626
1737,渝水区帝海观澜,1580486400,27.845187,114.941338
1738,渝水区康盛世纪花园,1580486400,27.814221,114.932888
1739,渝水区怡馨苑,1580486400,27.816399,114.923655
1740,渝水区战前西路延伸段熊家北村,1580486400,27.816092,114.932964
1741,渝水区新钢公园北村,1580486400,27.808488,114.929607
1742,渝水区新钢公园南村,1580486400,27.673773,114.919909
1743,渝水区新钢苗圃新城,1580486400,27.800589,114.939351
1744,渝水区景江花园,1580486400,27.834419,114.952996
1745,渝水区望城小区,1580486400,27.797882,114.930335
1746,渝水区水澜山,1580486400,27.838939,114.957917
1747,渝水区江山御景,1580486400,27.831528,114.956715
1748,渝水区温馨家园,1580486400,27.830050,114.938309
1749,渝水区玉紫花园,1580486400,27.809258,114.947742
1750,渝水区绿景水岸,1580486400,27.836578,114.915067
1751,渝水区翠湖天地,1580486400,27.816209,114.915643
1752,渝水区聚福花园,1580486400,27.828714,114.940884
1753,渝水区阳光华庭,1580486400,27.830715,114.942549
1754,渝水区青泉花园,1580486400,27.819583,114.923792
1755,渝水区鹄山上塘村委上塘村,1580486400,28.045688,115.013660
1756,渝水区仰天岗办事处同创中央公园7栋,1581091200,27.831914,114.901526
1757,渝水区城北街道暨阳世纪城27栋1单元,1581091200,27.828956,114.949245
1758,渝水区城南街道水务尚都2栋1单元,1581091200,27.808085,114.956430
1759,渝水区康盛世纪花园59栋1单元,1581091200,27.812904,114.933281
1760,渝水区新钢街道望城小区4栋4单元,1581091200,27.797882,114.930335
1761,渝水区城北街道青泉花园16栋2单元,1581177600,27.819583,114.923792
1762,分宜县钤西办保健巷119号8栋2单元,1581004800,27.815469,114.685596
1763,分宜县分宜恩达小区,1580486400,27.830929,114.701950
1764,分宜县分宜汉晶宫会所,1580486400,27.820790,114.698383
1765,分宜县广府御景北1栋2单元,1581091200,27.822353,114.694388
1766,分宜县永康公园里19栋2单元,1581177600,27.822814,114.700008
1767,于都县罗坳镇岩背村,1580918400,25.942563,115.278535
1768,于都县罗坳镇茅坪村,1580918400,25.929085,115.265141
1769,于都县罗坳镇三门村,1581004800,25.919045,115.263841
1770,会昌县文武坝镇,1580918400,25.607183,115.810541
1771,会昌县洞头乡,1580918400,25.311996,115.922215
1772,南康区蓉江街道,1580918400,25.663601,114.759010
1773,安远县欣山镇,1580918400,25.144279,115.400928
1774,章贡区丽江豪庭,1580918400,25.821439,114.960313
1775,章贡区南外街道怡景嘉苑,1580918400,25.848948,114.939563
1776,章贡区南外街道红旗大道,1580918400,25.855542,114.945068
1777,章贡区南外街道金樽花园,1580918400,25.852744,114.931535
1778,章贡区水南镇华城名苑,1580918400,25.824401,114.937998
1779,章贡区钓鱼台,1580832000,25.860989,114.948150
1780,章贡区西桥路,1581091200,25.861309,114.929551
1781,章贡区沙河镇鹭江新城,1581177600,25.832609,114.965671
1782,赣县区于都县罗坳镇岩背村,1580918400,25.942563,115.278535
1783,赣县区梅林镇文德家园,1580918400,25.889240,115.018623
1784,赣县区江口镇樟木新村,1580918400,25.958510,115.135315
1785,赣县区江口镇江口圩富民路,1580918400,25.962899,115.144696
1786,赣县区江口镇江口村,1580918400,25.957895,115.137830
1787,赣县区江口镇江口圩,1581004800,25.962899,115.144696
1788,赣州经开区蟠龙镇,1580918400,25.837461,114.878889
1789,龙南县杨村镇,1580918400,24.631910,114.624181
1790,龙南县杨村镇五星村,1580832000,24.639204,114.630198
1791,大余县南安镇,1581091200,25.401650,114.375781
1792,江口镇江口村,1580832000,25.957895,115.137830
1793,茅店镇杨洞村,1580832000,25.983900,115.032090
1794,万年县齐埠乡杨家村,1580918400,28.722260,116.878998
1795,余干县南昌大道,1580918400,28.713178,116.701274
1796,余干县洪家嘴乡东兴村,1580918400,28.701736,116.670757
1797,余干县玉亭镇上海花园小区,1580918400,28.710586,116.691692
1798,余干县玉亭镇干越社区,1580918400,28.680559,116.718615
1799,信州区东市街道中山路箭道巷,1580918400,28.451303,117.985529
1800,信州区东市街道箭道巷,1580918400,28.451942,117.984284
1801,信州区中山路156号,1580918400,28.451683,117.985546
1802,信州区朝阳镇狮山村,1580918400,28.424418,118.015656
1803,信州区茅家岭街道翰林印象,1580918400,28.430023,117.991786
1804,信州区西市街道铁路新村,1580918400,28.459864,117.970189
1805,信州区北门街道丰光苑小区,1581177600,28.464808,117.969330
1806,婺源县星江路,1580918400,29.254285,117.871019
1807,婺源县江湾镇前段村,1580918400,29.341249,118.144501
1808,婺源县浙源乡沱口村,1580918400,29.461668,117.850260
1809,婺源县蚺城街道君尚名府,1580918400,29.238826,117.865036
1810,广丰区丰溪街道卧龙城,1580918400,28.434928,118.184805
1811,广丰区丰溪街道巴黎庄园,1580918400,28.420940,118.192514
1812,广丰区丰溪街道芦洲大道,1580918400,28.426871,118.184428
1813,广丰区五都镇紫坞,1580918400,28.395405,118.248170
1814,广丰区大南镇李家村,1580918400,28.618222,118.236557
1815,广丰区大石乡水角大温组,1580918400,28.409623,118.199060
1816,广丰区大石街道大石头村,1580918400,28.414278,118.204547
1817,广丰区大石街道龙井安,1580918400,28.412637,118.210071
1818,广丰区永丰街道南街12号,1580918400,28.434822,118.204715
1819,广丰区永丰街道南街付家弄,1580918400,28.434822,118.204715
1820,广丰区永丰街道螺蛳山,1580918400,28.434822,118.204715
1821,广丰区永丰街道铜钹山大道,1580918400,28.461739,118.194304
1822,广丰区水角村大石街道,1581091200,28.412637,118.210071
1823,广丰区丰溪街道华西大酒店前200米,1581177600,28.426450,118.185027
1824,广信区旭日街道绿野星城,1580918400,28.445856,117.915763
1825,广信区旭日街道翰园小区,1580918400,28.437026,117.929245
1826,广信区田墩镇廖家村,1580918400,28.314504,118.120505
1827,德兴市泗洲镇立新村,1580918400,29.040846,117.658621
1828,德兴市花桥镇北小区,1580918400,28.936605,117.726935
1829,德兴市花桥镇北小村,1581091200,28.936605,117.726935
1830,玉山县冰溪街道凤凰城,1580918400,28.660776,118.241672
1831,玉山县四股桥乡车头村,1580918400,28.736455,118.247798
1832,玉山县岩瑞镇石牌村,1580918400,28.755868,118.329334
1833,鄱阳县双港镇尧山村,1580918400,29.061897,116.615589
1834,鄱阳县古县渡镇南滨村,1580918400,29.149422,116.889738
1835,鄱阳县四十里街镇占家村,1580918400,29.091267,116.796300
1836,鄱阳县四十里街镇四甲陈,1580918400,29.114347,116.777943
1837,鄱阳县四十里街镇四甲陈村,1580918400,29.092391,116.745555
1838,鄱阳县四十里街镇暖水村,1580918400,29.101561,116.745517
1839,鄱阳县四十里街镇老屋村,1580918400,29.114347,116.777943
1840,鄱阳县昌州乡陈高家村,1580918400,29.355939,116.903362
1841,鄱阳县昌州乡陈高村,1580918400,29.050317,116.829894
1842,鄱阳县昌洲乡陈高村,1580918400,29.050317,116.829894
1843,鄱阳县莲湖乡毛家村,1580918400,29.023524,116.552224
1844,鄱阳县谢家滩镇4班,1580918400,29.488531,116.733524
1845,鄱阳县谢家滩镇三潼镇,1580918400,29.476729,116.672694
1846,鄱阳县谢家滩镇余畈村,1580918400,29.518078,116.646715
1847,鄱阳县谢家滩镇十二班村,1580918400,29.488531,116.733524
1848,鄱阳县谢家滩镇田铺村,1580918400,29.486956,116.742030
1849,鄱阳县鄱阳镇东湖新村,1580918400,28.992767,116.687486
1850,鄱阳县鄱阳镇丽湖星城,1580918400,29.013705,116.702336
1851,鄱阳县鄱阳镇新民小区,1580918400,28.991233,116.680110
1852,鄱阳县鄱阳镇朱家桥村,1580918400,29.002084,116.726728
1853,鄱阳县鄱阳镇桃花源纪,1580918400,28.990508,116.706526
1854,鄱阳县鄱阳镇百亩千户小区,1580918400,29.018244,116.705360
1855,鄱阳县鄱阳镇绿野花园,1580918400,29.018995,116.697239
1856,鄱阳县鄱阳镇道汊村,1580918400,29.042596,116.771817
1857,鄱阳县饶丰镇虹东路,1580918400,28.959197,116.828657
1858,鄱阳县鸦鹊湖乡高家圩村,1580918400,29.346332,116.618817
1859,鄱阳县鄱阳镇先锋小区,1581004800,28.992767,116.687486
1860,鄱阳县鄱阳镇葵花岭,1581004800,29.021157,116.725698
1861,鄱阳县谢家滩十二班,1581177600,29.488531,116.733524
1862,鄱阳县谢家滩镇大田村,1581177600,29.496265,116.681476
1863,铅山县武夷山镇车盘村,1580918400,28.007326,117.823214
1864,万安县潞田镇读堂村,1581609600,26.548507,114.657659
1865,吉水县文峰镇万龙新村,1581609600,27.222473,115.144281
1866,吉水县文峰镇翰文苑小区,1581609600,27.229748,115.140390
1867,吉水县双村镇曲岭邹肖家村,1581609600,27.435297,115.212254
1868,吉水县文峰镇九洲市场,1581091200,27.226108,115.140449
1869,峡江县桐林乡桐林村,1581609600,27.516313,115.429197
1870,新干县金川镇灯饰城小区,1581004800,27.749807,115.402174
1871,永丰县君埠乡北寨村,1581609600,26.727386,115.703324
1872,永丰县恩江镇天立生态城小区,1581609600,27.334823,115.437255
1873,永新县在中乡平分村,1581609600,26.893088,114.135273
1874,泰和县万合镇南坑村,1581609600,26.863384,115.101128
1875,泰和县澄江镇山谷路,1581609600,26.795073,114.909332
1876,泰和县苏溪镇模山村,1581609600,26.742886,114.738197
1877,遂川县碧洲镇栗头村,1581609600,26.402827,114.664039
1878,吉安县桐坪镇张家村,1581609600,27.239042,114.885497
1879,余江区邓埠镇安仁大道,1581609600,28.219929,116.837593
1880,信江新区江北办事处信江村,1581609600,28.292796,117.064243
1881,信江新区恒大绿洲,1581609600,28.271365,117.060262
1882,月湖区凯翔宾馆,1581609600,28.246484,117.046231
1883,月湖区洪电新村,1581609600,28.217740,117.032280
1884,贵溪市东门街道嘉裕花园,1581609600,28.295952,117.227716
1885,贵溪市志光镇皇桥村,1581609600,28.413175,117.050200
1886,贵溪市泗沥镇汪湾下裴村,1581609600,28.410342,117.212402
1887,贵溪市雄石街道雄石街道建设路,1581609600,28.296535,117.234789
1888,贵溪市东门街道御水苑,1581091200,28.293097,117.227922
1889,高新区白露工业园区,1581609600,28.223940,117.005828
1890,光山县仙居乡独山村,1580572800,32.057360,114.632221
1891,光山县十里棚吴明村,1580400000,32.086485,114.888913
1892,光山县城关一中,1580313600,32.009746,114.913387
1893,光山县斛山乡胡店村,1580572800,31.983875,114.978066
1894,光山县斛山乡赵桥村,1580313600,31.992741,114.963781
1895,光山县晏河乡冷畈村,1580400000,31.842743,114.853934
1896,光山县晏河乡刘畈村,1580659200,31.817281,114.830284
1897,光山县槐店万河村,1580313600,31.918696,114.872148
1898,光山县殷棚乡李庄村,1580313600,31.855332,114.625967
1899,光山县白雀园镇冯寨村,1580572800,31.751816,115.103434
1900,光山县白雀园镇街道,1580659200,31.792211,115.108753
1901,光山县紫水办事处,1580313600,32.025815,114.913426
1902,光山县紫水街道,1580400000,32.001467,114.923448
1903,光山县紫水街道金泰领秀城,1580659200,32.001504,114.920893
1904,光山县马畈镇徐寨村,1580659200,31.963857,114.643262
1905,光山县凉亭乡王湾村,1580745600,31.822278,115.044299
1906,光山县北向店乡街道,1580745600,32.008191,114.737810
1907,光山县斛山乡邱大湾村,1580745600,31.896859,115.087814
1908,光山县南向店乡环山村,1580832000,31.825041,114.667279
1909,光山县弦山街道玲珑庭院,1581004800,31.999650,114.910832
1910,光山县白雀园镇中桥村,1581004800,31.792211,115.108753
1911,商城县吴河乡沈畈村,1580313600,31.732950,115.289589
1912,商城县城关镇迎春台,1580313600,31.804858,115.416988
1913,商城县河凤桥乡赵鹏村,1580486400,31.905808,115.419933
1914,商城县赤城街道,1580313600,31.803139,115.415445
1915,商城县鲇鱼山办事处,1580313600,31.818775,115.387170
1916,商城县达权店乡许冲村,1580745600,31.568605,115.321658
1917,商城县上石桥镇街道,1580832000,31.978361,115.450224
1918,商城县冯店乡杨摆埂村,1580918400,31.665963,115.261092
1919,商城县赤城街道任巷,1581091200,31.803139,115.415445
1920,商城县赤城街道时代商贸城,1581091200,31.800437,115.400114
1921,商城县赤城街道雍华园小区,1581091200,31.813116,115.420800
1922,商城县观庙镇西街,1581177600,31.833709,115.188554
1923,商城县观庙镇观庙村,1581177600,31.839206,115.190407
1924,商城县长竹园乡新建村,1581177600,31.531212,115.264288
1925,固始县三河尖乡汤岗村,1580486400,32.482495,115.857753
1926,固始县县蒋集镇兴隆村,1580572800,32.345902,115.824544
1927,固始县城郊乡六里棚,1580400000,32.233733,115.386998
1928,固始县张广乡长岗村,1580313600,32.080221,115.931345
1929,固始县徐集乡巴集村,1580486400,32.391811,115.837363
1930,固始县番城街道办事处六里棚社区,1580313600,32.207903,115.688190
1931,固始县蒋集镇,1580313600,32.306085,115.783155
1932,固始县陈集乡夏庙村,1580486400,32.331238,115.840717
1933,固始县蒋集镇新街村,1580745600,32.303644,115.766794
1934,固始县郭陆滩桥口村,1580832000,32.031462,115.664817
1935,固始县郭陆滩镇前楼村,1580918400,31.973812,115.592643
1936,固始县徐集乡街道,1581004800,32.391811,115.837363
1937,固始县徐集乡马寨村,1581004800,32.384174,115.834283
1938,固始县番城办事处仁里社区桂花苑小区,1581004800,32.212354,115.666180
1939,固始县蓼城街道民主三巷,1581004800,32.194783,115.664948
1940,固始县徐集乡顺河村,1581091200,32.378445,115.829666
1941,平桥区台北城上城,1580313600,32.115431,114.117154
1942,平桥区孔庄村甘岸街道,1580313600,32.268589,113.970960
1943,平桥区平桥街道,1580486400,32.113706,114.137531
1944,平桥区平西办事处,1580486400,32.129586,114.121532
1945,平桥区平西街道南一胡同和美小区,1580572800,32.105516,114.123151
1946,平桥区明港镇金辉花园,1580572800,32.462228,114.049403
1947,平桥区河源二号公馆,1580486400,32.153501,114.085559
1948,平桥区白高庙小区,1580486400,32.142359,114.083918
1949,平桥区阳光花园,1580659200,32.117118,114.125123
1950,平桥区龙江路凯旋城,1580572800,32.121394,114.134870
1951,平桥区万象城彩虹苑,1580832000,32.100146,114.134165
1952,平桥区五里办事处凤台居委会,1580832000,32.154996,114.301650
1953,平桥区平昌关镇平昌村某家属院,1580832000,32.364169,113.891683
1954,平桥区明港镇农工路长乐园,1580832000,32.469153,114.056691
1955,平桥区查山乡街道,1580832000,32.415762,113.938262
1956,平桥区肖王镇街道,1580832000,32.326993,114.305334
1957,平桥区胡店乡郭湾村,1580832000,32.346405,114.114271
1958,平桥区平西街道龙江名邸,1581091200,32.125495,114.121007
1959,平桥区明港镇建设路金水源,1581091200,32.471422,114.047816
1960,平桥区肖店乡齐营村,1581091200,32.439555,114.223274
1961,平桥区五里街道居委会新街,1581177600,32.410633,113.941497
1962,平桥区平昌关镇,1581177600,32.362555,113.895812
1963,平桥区朱庄村,1581177600,32.349059,113.971351
1964,平桥区查山乡工商路,1581177600,32.415762,113.938262
1965,平桥区王岗乡电管所附近,1581177600,32.488327,113.832304
1966,息县八里岔乡八里岔,1580313600,32.231504,114.787803
1967,息县关店乡戴东村,1580313600,32.288497,114.883084
1968,息县夏庄镇街西村,1580572800,32.392495,115.005985
1969,息县淮河街道八里新村,1580572800,32.374572,114.770063
1970,息县淮河街道老石油公司家属院,1580572800,32.368708,114.743582
1971,息县项店镇街道,1580832000,32.382093,114.881016
1972,息县项店镇街村,1580918400,32.382093,114.881016
1973,息县杨店乡永红村,1581091200,32.458625,114.857263
1974,息县项店镇街村中学附近,1581091200,32.382093,114.881016
1975,息县夏庄镇街村,1581177600,32.406886,115.014966
1976,息县项店镇董围孜村,1581177600,32.421528,114.936765
1977,新县卡房乡居畈村,1580486400,31.618339,114.580212
1978,新县将军路,1580486400,31.542821,114.988722
1979,新县新集镇京九路,1580486400,31.644881,114.890825
1980,新县箭厂河乡,1580486400,31.533369,114.821155
1981,新县卡房乡朱畈村,1580832000,31.632784,114.598570
1982,新县箭厂河乡詹湾村,1580832000,31.533369,114.821155
1983,新县新集镇金水小学,1580918400,31.624890,114.897469
1984,新县新集镇长潭二街,1581004800,31.646902,114.885302
1985,浉河区东双河镇白庙村,1580659200,32.021169,114.109280
1986,浉河区京深路,1580313600,32.146080,114.060156
1987,浉河区北京大街徐家湾,1580313600,32.143004,114.073535
1988,浉河区十三里桥乡街道,1580572800,32.080756,114.054914
1989,浉河区吴家店镇余寨村,1580313600,32.252494,113.805774
1990,浉河区吴家店镇邱湾村,1580486400,32.287058,113.847138
1991,浉河区大庆路文馨园,1580313600,32.118171,114.094936
1992,浉河区工区路,1580313600,32.105632,114.113832
1993,浉河区平昌关镇翟寨村,1580400000,32.278278,113.967854
1994,浉河区文化路宝丰华府,1580313600,32.125554,114.078210
1995,浉河区柳林乡新街,1580572800,31.953478,114.100615
1996,浉河区柳林乡红檀村,1580313600,31.953478,114.100615
1997,浉河区浉河区工区路,1580400000,32.105632,114.113832
1998,浉河区浉河港乡,1580313600,32.030995,113.843150
1999,浉河区浉河港镇马家畈村,1580313600,31.981111,113.945702
2000,浉河区游河乡出山村,1580486400,32.238237,114.004965
2001,浉河区红太阳小区,1580572800,32.125404,114.091378
2002,浉河区经典花园,1580313600,32.123879,114.069743
2003,浉河区胜利南路,1580313600,32.119513,114.081255
2004,浉河区金牛山街道,1580486400,32.169264,114.063629
2005,浉河区金牛路,1580313600,32.158627,114.068837
2006,浉河区阳光宾馆,1580486400,32.133641,114.086948
2007,浉河区民权街道文馨园,1580745600,32.118171,114.094936
2008,浉河区柳林乡堰冲村,1580832000,31.922261,114.125762
2009,浉河区东双河镇黄楼村,1580918400,32.018767,114.196574
2010,浉河区胜利南路某家属院,1580918400,32.126980,114.076604
2011,浉河区吴家店镇向昌湾村,1581091200,32.287058,113.847138
2012,浉河区老城街道东方红大道怡和名门,1581091200,32.129295,114.077371
2013,淮滨县滨湖街道淮滨花园,1580659200,32.478052,115.416765
2014,淮滨县王家岗乡小围村,1580659200,32.447580,115.528900
2015,淮滨县邓湾乡新寨村,1580572800,32.363995,115.245619
2016,淮滨县顺河办事处,1580400000,32.449242,115.398363
2017,淮滨县王家岗乡李营村,1580832000,32.465362,115.493384
2018,潢川县双柳树镇晏岗村,1580486400,31.904827,115.257445
2019,潢川县弋阳街道,1580572800,32.108626,115.072047
2020,潢川县弋阳街道经济开发区,1580572800,32.108626,115.072047
2021,潢川县春申办事处西关街,1580313600,32.148183,115.051083
2022,潢川县谈店乡八里村,1580313600,32.155958,115.100037
2023,潢川县长堰村定城办事处县后街,1580313600,32.190933,115.224894
2024,潢川县黄岗乡长堰村,1580313600,32.190933,115.224894
2025,潢川县双柳树店乡晏岗村,1580745600,31.904827,115.257445
2026,潢川县定城街道草湖路京五小区,1580918400,32.146836,115.059758
2027,潢川县定城街道草湖路北苑,1581004800,32.152216,115.062161
2028,潢川县来龙乡淮凤村,1581177600,32.329029,115.099932
2029,罗山县周党镇吊桥村,1580486400,31.913494,114.577961
2030,罗山县子路乡,1580313600,32.095735,114.472123
2031,罗山县楠杆镇街道,1580659200,32.166554,114.420732
2032,罗山县灵山镇檀墩村,1580313600,31.972275,114.349044
2033,罗山县老汽车站,1580659200,32.197686,114.536571
2034,罗山县龙山街道,1580313600,32.191669,114.540347
2035,罗山县丽水街道办事处赵园村,1580745600,32.209234,114.528444
2036,罗山县周党镇杨冲村,1581091200,31.937774,114.566762
2037,罗山县宝城街道某家属院,1580745600,32.212508,114.546633
2038,罗山县丽水街道名仕家园,1580832000,32.208034,114.525158
2039,罗山县丽水街道宝城公馆,1580832000,32.218657,114.519047
2040,罗山县丽水街道府邸花园,1580832000,32.206480,114.516841
2041,罗山县丽水街道新都名苑,1580832000,32.205688,114.508208
2042,罗山县丽水街道欣荣花园,1580832000,32.203266,114.508470
2043,罗山县子路镇罗寨村,1580832000,32.095487,114.482223
2044,罗山县宝城街道北大街环城西路某家属院,1580832000,32.219342,114.513756
2045,罗山县铁铺镇九里村,1580832000,31.874776,114.240844
2046,罗山县龙山街道沈畈村,1580832000,32.192656,114.543227
2047,罗山县丽水街道天湖雅苑,1580918400,32.202542,114.515692
2048,罗山县丽水街道温州花园,1580918400,32.205832,114.523572
2049,罗山县周党镇中山村,1580918400,31.957784,114.517672
2050,罗山县定远乡北洼村,1580918400,31.835297,114.510158
2051,罗山县宝城街道水岸国际花园,1580918400,32.202376,114.529812
2052,罗山县宝城街道淮南市场,1580918400,32.206195,114.536713
2053,罗山县庙仙乡吴乡村,1580918400,32.037757,114.593589
2054,罗山县彭新镇马店村,1580918400,31.904794,114.359405
2055,罗山县楠杆镇郑堂村,1580918400,32.148599,114.466618
2056,罗山县潘新镇肖庄村,1580918400,31.907692,114.445060
2057,罗山县灵山镇董桥村,1580918400,31.947076,114.291412
2058,罗山县宝城街道,1581004800,32.212508,114.546633
2059,罗山县龙山街道天元商贸城,1581004800,32.196315,114.539859
2060,罗山县子路乡殷湾村,1581177600,32.073402,114.405932
2061,羊山新区东方今典,1580572800,32.145331,114.114194
2062,羊山新区府都花园,1580313600,32.149492,114.081536
2063,羊山新区羊山1街,1580313600,32.144023,114.071464
2064,羊山新区羊山四街,1580313600,32.144023,114.071464
2065,羊山新区龙飞山办事处二号公馆,1580745600,32.149345,114.138916
2066,羊山新区新十一大道东方今典A区,1580832000,32.145350,114.115319
2067,羊山新区龙飞山办事处恒大名都,1580918400,32.146194,114.131734
2068,羊山新区新六大街壹号公馆,1581177600,32.138101,114.089456
2069,南湾风景管理区南湾街道谭庙村,1581091200,32.152898,113.985144
2070,南湾风景管理区南湾风景管理区南湾街道茶韵路茗阳天下,1581004800,32.129532,114.043581
2071,卧龙区七一街道办,1580572800,32.984896,112.522289
2072,卧龙区七一街道,1580486400,32.984896,112.522289
2073,卧龙区七里园乡,1580486400,33.035917,112.557540
2074,卧龙区卧龙岗街道办,1580486400,32.983871,112.518594
2075,卧龙区梅溪街道,1580486400,32.997715,112.530555
2076,卧龙区梅溪街道办,1580486400,32.999988,112.532060
